Packet_count,Satellite_Status,Error_Code,Mission_Time,Pressure1,Pressure2,Altitude1,Altitude2,Altitude_Difference,Descent_rate,Temperature,Battery_Voltage,Gps_Latitude,Gps_Longitude,Gps_Altitude,Pitch,Roll,Yaw,LNLN,Iot_Data,Team_Number
14, 0, 11011, 1/1/2000; 2:0:11, 90930.23, 90958.05, 0.72, 0.02, 0.7, -0.8, 25.55, 3.88, 0.0000000, 0.0000000, 0.00, 2.5, -0.88, 359.94, 0N0N, 0.0, 335592
15, 0, 11011, 1/1/2000; 2:0:12, 90928.22, 90957.23, 0.9, 0.1, 0.8, 0.17, 25.57, 3.92, 0.0000000, 0.0000000, 0.00, 2.5, -0.88, 359.94, 0N0N, 0.0, 335592
16, 0, 11011, 1/1/2000; 2:0:14, 90929.23, 90954.59, 0.81, 0.34, 0.47, -0.06, 25.58, 3.92, 0.0000000, 0.0000000, 0.00, 2.5, -0.88, 359.94, 0N0N, 26.42, 335592
17, 0, 11011, 1/1/2000; 2:0:16, 90931.47, 90956.65, 0.6, 0.15, 0.45, -0.1, 25.59, 3.88, 0.0000000, 0.0000000, 0.00, 2.5, -0.88, 359.94, 0N0N, 26.44, 335592
18, 0, 11011, 1/1/2000; 2:0:17, 90931.23, 90957.48, 0.63, 0.07, 0.56, 0.03, 25.55, 3.86, 0.0000000, 0.0000000, 0.00, 2.5, -0.88, 359.94, 0N0N, 26.45, 335592
19, 0, 11011, 1/1/2000; 2:0:18, 90925.45, 90954.53, 1.16, 0.35, 0.81, 0.53, 25.55, 3.92, 0.0000000, 0.0000000, 0.00, 2.5, -0.88, 359.94, 0N0N, 26.44, 335592
20, 0, 11011, 1/1/2000; 2:0:19, 90928.08, 90957.04, 0.92, 0.11, 0.81, -0.24, 25.55, 3.92, 0.0000000, 0.0000000, 0.00, 2.5, -0.88, 359.94, 0N0N, 26.48, 335592
21, 0, 11011, 1/1/2000; 2:0:20, 90929.94, 90957.38, 0.75, 0.08, 0.67, -0.17, 25.57, 3.91, 0.0000000, 0.0000000, 0.00, 2.5, -0.88, 359.94, 0N0N, 26.47, 335592
22, 0, 11011, 1/1/2000; 2:0:21, 90928.84, 90955.17, 0.85, 0.29, 0.56, 0.1, 25.57, 3.86, 0.0000000, 0.0000000, 0.00, 2.5, -0.88, 359.94, 0N0N, 26.48, 335592
23, 0, 11011, 1/1/2000; 2:0:22, 90934.1, 90955.07, 0.36, 0.3, 0.06, -0.49, 25.59, 3.91, 0.0000000, 0.0000000, 0.00, 2.5, -0.88, 359.94, 0N0N, 26.51, 335592
24, 0, 11011, 1/1/2000; 2:0:23, 90933.09, 90958.98, 0.45, -0.07, 0.52, 0.09, 25.58, 3.92, 0.0000000, 0.0000000, 0.00, 2.5, -0.88, 359.94, 0N0N, 26.54, 335592
25, 0, 11011, 1/1/2000; 2:0:24, 90930.14, 90956.38, 0.73, 0.17, 0.56, 0.28, 25.54, 3.83, 0.0000000, 0.0000000, 0.00, 2.5, -0.88, 359.94, 0N0N, 26.55, 335592
26, 0, 11011, 1/1/2000; 2:0:25, 90928.51, 90957.63, 0.88, 0.06, 0.82, 0.15, 25.48, 3.84, 0.0000000, 0.0000000, 0.00, 2.5, -0.88, 359.94, 0N0N, 26.55, 335592
27, 0, 11011, 1/1/2000; 2:0:26, 90925.79, 90959.2, 1.13, -0.09, 1.22, 0.25, 25.48, 3.84, 0.0000000, 0.0000000, 0.00, 2.5, -0.88, 359.94, 0N0N, 26.55, 335592
28, 0, 11011, 1/1/2000; 2:0:27, 90929.52, 90960.31, 0.78, -0.19, 0.97, -0.35, 25.49, 3.86, 0.0000000, 0.0000000, 0.00, 2.5, -0.88, 359.94, 0N0N, 26.62, 335592
29, 0, 11011, 1/1/2000; 2:0:28, 90938.21, 90957.86, -0.02, 0.04, 0.06, -0.8, 25.5, 3.92, 0.0000000, 0.0000000, 0.00, 2.5, -0.88, 359.94, 0N0N, 26.63, 335592
30, 0, 11011, 1/1/2000; 2:0:29, 90929.75, 90958.59, 0.76, -0.03, 0.79, 0.78, 25.5, 3.91, 0.0000000, 0.0000000, 0.00, 2.5, -0.88, 359.94, 0N0N, 26.66, 335592
31, 0, 11011, 1/1/2000; 2:0:30, 90931.76, 90956.73, 0.58, 0.14, 0.44, -0.18, 25.52, 3.88, 0.0000000, 0.0000000, 0.00, 2.5, -0.88, 359.94, 0N0N, 26.7, 335592
32, 0, 11011, 1/1/2000; 2:0:31, 90934.24, 90957.8, 0.35, 0.04, 0.31, -0.23, 25.53, 3.94, 0.0000000, 0.0000000, 0.00, 2.5, -0.88, 359.94, 0N0N, 26.7, 335592
33, 0, 11011, 1/1/2000; 2:0:32, 90929.37, 90955.97, 0.8, 0.21, 0.59, 0.45, 25.54, 3.96, 0.0000000, 0.0000000, 0.00, 2.5, -0.88, 359.94, 0N0N, 26.71, 335592
34, 0, 11011, 1/1/2000; 2:0:33, 90927.84, 90958.02, 0.94, 0.02, 0.92, 0.14, 25.55, 3.89, 0.0000000, 0.0000000, 0.00, 2.5, -0.88, 359.94, 0N0N, 26.74, 335592
35, 0, 11011, 1/1/2000; 2:0:34, 90930.08, 90953.96, 0.73, 0.4, 0.33, -0.21, 25.55, 3.94, 0.0000000, 0.0000000, 0.00, 10.5, -0.88, 359.94, 0N0N, 26.74, 335592
36, 0, 11011, 1/1/2000; 2:0:35, 90930.7, 90955.9, 0.67, 0.22, 0.45, -0.06, 25.56, 3.99, 0.0000000, 0.0000000, 0.00, 2.5, -0.88, 359.94, 0N0N, 26.77, 335592
37, 0, 11011, 1/1/2000; 2:0:36, 90929.08, 90955.54, 0.83, 0.25, 0.58, 0.16, 25.58, 3.97, 0.0000000, 0.0000000, 0.00, 2.5, -0.88, 359.94, 0N0N, 26.77, 335592
38, 0, 11011, 1/1/2000; 2:0:37, 90928.32, 90955.78, 0.9, 0.23, 0.67, 0.07, 25.59, 3.91, 0.0000000, 0.0000000, 0.00, 2.5, -0.88, 359.94, 0N0N, 26.78, 335592
39, 0, 11011, 1/1/2000; 2:0:38, 90936.96, 90955.03, 0.09, 0.3, 0.21, -0.8, 25.6, 3.89, 0.0000000, 0.0000000, 0.00, 2.5, -0.88, 359.94, 0N0N, 26.8, 335592
40, 0, 11011, 1/1/2000; 2:0:39, 90926.93, 90955.04, 1.02, 0.3, 0.72, 0.92, 25.6, 3.92, 0.0000000, 0.0000000, 0.00, 2.5, -0.88, 359.94, 0N0N, 26.77, 335592
41, 0, 11011, 1/1/2000; 2:0:40, 90929.46, 90955.66, 0.79, 0.24, 0.55, -0.23, 25.59, 3.84, 0.0000000, 0.0000000, 0.00, 2.5, -0.88, 359.94, 0N0N, 26.77, 335592
42, 0, 11011, 1/1/2000; 2:0:41, 90930.94, 90956.36, 0.65, 0.18, 0.47, -0.14, 25.62, 3.91, 0.0000000, 0.0000000, 0.00, 2.5, -0.88, 359.94, 0N0N, 26.81, 335592
43, 0, 11011, 1/1/2000; 2:0:42, 90927.55, 90955.08, 0.97, 0.29, 0.68, 0.32, 25.62, 3.91, 0.0000000, 0.0000000, 0.00, 2.5, -0.88, 359.94, 0N0N, 26.86, 335592
44, 0, 11011, 1/1/2000; 2:0:43, 90929.55, 90956.27, 0.78, 0.18, 0.6, -0.19, 25.62, 3.94, 0.0000000, 0.0000000, 0.00, 2.5, -0.88, -1688.06, 0N0N, 26.9, 335592
45, 0, 11011, 1/1/2000; 2:0:44, 90939.73, 90957.45, -0.16, 0.08, 0.24, -0.94, 25.63, 3.91, 0.0000000, 0.0000000, 0.00, 2.5, -0.88, 359.94, 0N0N, 26.93, 335592
46, 0, 11011, 19/9/2024; 11:55:42, 90930.17, 90956.55, 0.72, 0.16, 0.56, 0.88, 25.66, 3.86, 0.0000000, 0.0000000, 0.00, 2.5, -0.88, 359.94, 0N0N, 26.94, 335592
47, 0, 11011, 19/9/2024; 11:55:43, 90937.11, 90957.5, 0.08, 0.07, 0.01, -0.64, 25.64, 3.86, 0.0000000, 0.0000000, 0.00, 2.5, -0.88, 359.94, 0N0N, 26.94, 335592
48, 0, 11011, 19/9/2024; 11:55:44, 90932.42, 90956.91, 0.52, 0.13, 0.39, 0.44, 25.66, 3.89, 0.0000000, 0.0000000, 0.00, 2.5, -0.88, 359.94, 0N0N, 26.88, 335592
49, 0, 11011, 19/9/2024; 11:55:45, 90929.26, 90957.41, 0.81, 0.08, 0.73, 0.28, 25.66, 3.89, 0.0000000, 0.0000000, 0.00, 3.19, -0.25, 0.0, 0N0N, 26.85, 335592
50, 0, 11011, 19/9/2024; 11:55:46, 90932.18, 90956.7, 0.54, 0.14, 0.4, -0.27, 25.67, 3.91, 0.0000000, 0.0000000, 0.00, 14.5, 11.19, 0.44, 0N0N, 26.87, 335592
51, 0, 11011, 19/9/2024; 11:55:47, 90928.02, 90956.11, 0.92, 0.2, 0.72, 0.38, 25.68, 3.92, 0.0000000, 0.0000000, 0.00, 14.5, 11.5, 0.5, 0N0N, 26.88, 335592
52, 0, 11011, 19/9/2024; 11:55:48, 90934.42, 90956.9, 0.33, 0.13, 0.2, -0.58, 25.68, 3.92, 0.0000000, 0.0000000, 0.00, 8.88, 4.31, 0.12, 0N0N, 26.91, 335592
53, 0, 11011, 19/9/2024; 11:55:49, 90933.18, 90956.01, 0.44, 0.21, 0.23, 0.11, 25.67, 3.92, 0.0000000, 0.0000000, 0.00, 3.12, -0.62, 359.94, 0N0N, 26.91, 335592
54, 0, 11011, 19/9/2024; 11:55:50, 90938.05, 90955.93, -0.01, 0.22, 0.23, -0.45, 25.69, 3.94, 0.0000000, 0.0000000, 0.00, 2.56, -1.12, 359.94, 0N0N, 26.95, 335592
55, 0, 11011, 19/9/2024; 11:55:51, 90929.88, 90956.14, 0.75, 0.2, 0.55, 0.76, 25.68, 3.92, 0.0000000, 0.0000000, 0.00, 2.38, -1.25, 359.94, 0N0N, 26.98, 335592
56, 0, 11011, 19/9/2024; 11:55:52, 90927.64, 90956.81, 0.96, 0.13, 0.83, 0.21, 25.67, 3.80, 0.0000000, 0.0000000, 0.00, 2.31, -1.38, 359.94, 0N0N, 26.99, 335592
57, 0, 11011, 19/9/2024; 11:55:53, 90932.27, 90955.19, 0.53, 0.28, 0.25, -0.43, 25.68, 3.88, 0.0000000, 0.0000000, 0.00, 10.31, -1.38, 359.94, 0N0N, 27.03, 335592
58, 0, 11011, 19/9/2024; 11:55:54, 90929.11, 90956.38, 0.82, 0.17, 0.65, 0.29, 25.67, 3.96, 0.0000000, 0.0000000, 0.00, 2.31, -1.38, 359.94, 0N0N, 27.07, 335592
59, 0, 11011, 19/9/2024; 11:55:55, 90926.33, 90957.87, 1.08, 0.04, 1.04, 0.26, 25.69, 3.96, 0.0000000, 0.0000000, 0.00, 2.31, -1.38, 359.94, 0N0N, 27.05, 335592
60, 0, 11011, 19/9/2024; 11:55:56, 90925.56, 90955.09, 1.15, 0.29, 0.86, 0.07, 25.66, 3.97, 0.0000000, 0.0000000, 0.00, 2.31, -1.38, 359.94, 0N0N, 27.03, 335592
61, 0, 11011, 19/9/2024; 11:55:57, 90927.1, 90954.14, 1.01, 0.38, 0.63, -0.14, 25.68, 3.89, 0.0000000, 0.0000000, 0.00, 2.31, -1.38, 359.94, 0N0N, 27.04, 335592
62, 0, 11011, 19/9/2024; 11:55:58, 90931.35, 90957.95, 0.62, 0.03, 0.59, -0.39, 25.68, 3.88, 0.0000000, 0.0000000, 0.00, 2.31, -1.38, 359.94, 0N0N, 27.02, 335592
63, 0, 11011, 19/9/2024; 11:55:59, 90932.88, 90956.01, 0.47, 0.21, 0.26, -0.15, 25.69, 3.80, 0.0000000, 0.0000000, 0.00, 2.31, -1.38, 359.94, 0N0N, 27.02, 335592
64, 0, 11011, 19/9/2024; 11:56:0, 90931.2, 90955.43, 0.63, 0.26, 0.37, 0.16, 25.69, 3.97, 0.0000000, 0.0000000, 0.00, 2.31, -1.38, 359.94, 0N0N, 27.02, 335592
65, 0, 11011, 19/9/2024; 11:56:1, 90935.98, 90955.97, 0.19, 0.21, 0.02, -0.44, 25.7, 3.91, 0.0000000, 0.0000000, 0.00, 2.31, -1.38, 359.94, 0N0N, 26.99, 335592
66, 0, 11011, 19/9/2024; 11:56:2, 90928.03, 90955.86, 0.92, 0.22, 0.7, 0.73, 25.72, 3.92, 0.0000000, 0.0000000, 0.00, 2.31, -1.38, 359.94, 0N0N, 26.98, 335592
67, 0, 11011, 19/9/2024; 11:56:3, 90929.04, 90954.7, 0.83, 0.33, 0.5, -0.09, 25.73, 3.89, 0.0000000, 0.0000000, 0.00, 2.31, -1.38, 359.94, 0N0N, 26.95, 335592
68, 0, 11011, 19/9/2024; 11:56:4, 90935.44, 90955.5, 0.24, 0.26, 0.02, -0.59, 25.73, 3.96, 0.0000000, 0.0000000, 0.00, 2.25, -1.44, 359.94, 0N0N, 26.89, 335592
69, 0, 11011, 19/9/2024; 11:56:5, 90930.27, 90955.04, 0.71, 0.3, 0.41, 0.47, 25.75, 3.94, 0.0000000, 0.0000000, 0.00, 2.19, -1.44, 359.94, 0N0N, 26.84, 335592
70, 0, 11011, 19/9/2024; 11:56:6, 90918.93, 90953.56, 1.77, 0.44, 1.33, 1.06, 25.75, 3.94, 0.0000000, 0.0000000, 0.00, 1.81, -1.5, 359.94, 0N0N, 26.83, 335592
71, 0, 11011, 19/9/2024; 11:56:7, 90927.88, 90955.03, 0.94, 0.3, 0.64, -0.83, 25.76, 3.94, 0.0000000, 0.0000000, 0.00, -2.94, -2.38, 359.88, 0N0N, 26.85, 335592
72, 0, 11011, 19/9/2024; 11:56:8, 90924.72, 90952.2, 1.23, 0.56, 0.67, 0.29, 25.77, 3.91, 0.0000000, 0.0000000, 0.00, -0.94, -4.69, 359.94, 0N0N, 26.87, 335592
73, 0, 11011, 19/9/2024; 11:56:9, 90929.27, 90952.3, 0.81, 0.55, 0.26, -0.42, 25.79, 3.88, 0.0000000, 0.0000000, 0.00, -0.25, -5.0, 0.0, 0N0N, 26.9, 335592
74, 0, 11011, 19/9/2024; 11:56:10, 90928.88, 90955.42, 0.84, 0.26, 0.58, 0.03, 25.77, 3.91, 0.0000000, 0.0000000, 0.00, -0.31, -5.12, 0.0, 0N0N, 26.91, 335592
75, 0, 11011, 19/9/2024; 11:56:11, 90929.5, 90956.02, 0.79, 0.21, 0.58, -0.05, 25.79, 3.89, 0.0000000, 0.0000000, 0.00, 2.38, -1.38, 0.06, 0N0N, 26.92, 335592
76, 0, 11011, 19/9/2024; 11:56:12, 90920.24, 90955.82, 1.64, 0.23, 1.41, 0.85, 25.8, 3.89, 0.0000000, 0.0000000, 0.00, 2.19, -1.62, 0.06, 0N0N, 26.95, 335592
77, 0, 11011, 19/9/2024; 11:56:13, 90927.11, 90956.05, 1.01, 0.2, 0.81, -0.63, 25.71, 3.86, 0.0000000, 0.0000000, 0.00, 2.25, -2.75, 0.06, 0N0N, 26.99, 335592
78, 0, 11011, 19/9/2024; 11:56:14, 90937.52, 90953.78, 0.04, 0.42, 0.38, -0.96, 25.7, 3.94, 0.0000000, 0.0000000, 0.00, 2.62, -2.88, 0.06, 0N0N, 26.99, 335592
79, 0, 11011, 19/9/2024; 11:56:15, 90932.58, 90957.91, 0.5, 0.03, 0.47, 0.46, 25.7, 3.89, 0.0000000, 0.0000000, 0.00, 2.69, -2.94, 0.06, 0N0N, 27.03, 335592
80, 0, 11011, 19/9/2024; 11:56:16, 90954.79, 90958.2, -1.56, 0.01, 1.57, -2.05, 25.68, 3.84, 0.0000000, 0.0000000, 0.00, 2.69, -2.94, 0.06, 0N0N, 27.05, 335592
81, 0, 11011, 19/9/2024; 11:56:17, 90948.78, 90957.81, -1.0, 0.04, 1.04, 0.56, 25.68, 3.92, 0.0000000, 0.0000000, 0.00, 4.06, -3.88, 0.06, 0N0N, 27.1, 335592
82, 0, 11011, 19/9/2024; 11:56:18, 90952.79, 90957.84, -1.37, 0.04, 1.41, -0.37, 25.67, 3.92, 0.0000000, 0.0000000, 0.00, 4.25, -5.5, 0.0, 0N0N, 27.12, 335592
83, 0, 11011, 19/9/2024; 11:56:19, 90956.96, 90956.87, -1.76, 0.13, 1.89, -0.39, 25.66, 3.92, 0.0000000, 0.0000000, 0.00, 4.25, -8.19, 359.94, 0N0N, 27.14, 335592
84, 0, 11011, 19/9/2024; 11:56:21, 90948.16, 90957.13, -0.94, 0.1, 1.04, 0.41, 25.66, 3.86, 0.0000000, 0.0000000, 0.00, 1.56, -7.62, 359.75, 0N0N, 27.2, 335592
85, 0, 11011, 19/9/2024; 11:56:23, 90944.15, 90960.35, -0.57, -0.19, 0.38, 0.18, 25.66, 3.83, 0.0000000, 0.0000000, 0.00, 1.19, -6.5, 359.75, 0N0N, 27.23, 335592
86, 0, 11011, 19/9/2024; 11:56:24, 90941.06, 90957.17, -0.29, 0.1, 0.39, 0.33, 25.68, 3.89, 0.0000000, 0.0000000, 0.00, 1.25, -6.38, 359.75, 0N0N, 27.24, 335592
87, 0, 11011, 19/9/2024; 11:56:25, 90943.06, 90957.23, -0.47, 0.1, 0.57, -0.18, 25.67, 4.04, 0.0000000, 0.0000000, 0.00, 1.25, -6.31, 359.75, 0N0N, 27.24, 335592
88, 0, 11011, 19/9/2024; 11:56:26, 90941.29, 90953.28, -0.31, 0.46, 0.77, 0.16, 25.67, 3.75, 0.0000000, 0.0000000, 0.00, 1.25, -6.31, 359.75, 0N0N, 27.23, 335592
89, 0, 11011, 19/9/2024; 11:56:27, 90938.44, 90955.51, -0.04, 0.25, 0.29, 0.27, 25.66, 3.89, 0.0000000, 0.0000000, 0.00, 1.25, -6.31, 359.75, 0N0N, 27.23, 335592
90, 0, 11011, 19/9/2024; 11:56:28, 90939.9, 90956.59, -0.18, 0.15, 0.33, -0.14, 25.67, 3.92, 0.0000000, 0.0000000, 0.00, 1.25, -6.31, 359.75, 0N0N, 27.2, 335592
91, 0, 11011, 19/9/2024; 11:56:29, 90938.51, 90953.04, -0.05, 0.48, 0.53, 0.13, 25.67, 3.83, 0.0000000, 0.0000000, 0.00, 1.25, -6.31, 359.75, 0N0N, 27.2, 335592
92, 0, 11011, 19/9/2024; 11:56:30, 90938.74, 90953.73, -0.07, 0.42, 0.49, -0.02, 25.67, 3.89, 0.0000000, 0.0000000, 0.00, 0.38, -6.25, 359.69, 0N0N, 27.2, 335592
93, 0, 11011, 19/9/2024; 11:56:31, 90943.75, 90954.56, -0.53, 0.34, 0.87, -0.46, 25.7, 3.92, 0.0000000, 0.0000000, 0.00, -0.75, -6.62, 359.62, 0N0N, 27.22, 335592
94, 0, 11011, 19/9/2024; 11:56:32, 90939.64, 90954.85, -0.15, 0.32, 0.47, 0.38, 25.73, 3.89, 0.0000000, 0.0000000, 0.00, -0.25, -5.75, 359.62, 0N0N, 27.23, 335592
95, 0, 11011, 19/9/2024; 11:56:33, 90936.25, 90954.09, 0.16, 0.39, 0.23, 0.31, 25.77, 3.76, 0.0000000, 0.0000000, 0.00, -0.25, -5.88, 359.62, 0N0N, 27.2, 335592
96, 0, 11011, 19/9/2024; 11:56:34, 90944.43, 90954.71, -0.6, 0.33, 0.93, -0.76, 25.77, 3.91, 0.0000000, 0.0000000, 0.00, -1.25, -6.38, 359.62, 0N0N, 27.22, 335592
97, 0, 11011, 19/9/2024; 11:56:35, 90934.53, 90951.77, 0.32, 0.6, 0.28, 0.92, 25.79, 3.81, 0.0000000, 0.0000000, 0.00, -1.69, -6.69, 359.56, 0N0N, 27.22, 335592
98, 0, 11011, 19/9/2024; 11:56:36, 90937.76, 90955.34, 0.02, 0.27, 0.25, -0.3, 25.82, 3.91, 0.0000000, 0.0000000, 0.00, -3.94, -9.25, 359.5, 0N0N, 27.21, 335592
99, 0, 11011, 19/9/2024; 11:56:37, 90946.22, 90953.34, -0.76, 0.46, 1.22, -0.78, 25.84, 3.91, 0.0000000, 0.0000000, 0.00, -1.94, -9.94, 359.69, 0N0N, 27.18, 335592
100, 0, 11011, 19/9/2024; 11:56:38, 90933.47, 90952.83, 0.42, 0.5, 0.08, 1.18, 25.88, 3.91, 0.0000000, 0.0000000, 0.00, -1.25, -11.56, 359.75, 0N0N, 27.21, 335592
101, 0, 11011, 19/9/2024; 11:56:39, 90934.59, 90952.91, 0.31, 0.5, 0.19, -0.11, 25.9, 3.86, 0.0000000, 0.0000000, 0.00, -1.31, -10.19, 359.75, 0N0N, 27.2, 335592
102, 0, 11011, 19/9/2024; 11:56:40, 90933.64, 90954.86, 0.4, 0.32, 0.08, 0.09, 25.92, 3.94, 0.0000000, 0.0000000, 0.00, -1.19, -9.75, 359.75, 0N0N, 27.18, 335592
103, 1, 11011, 19/9/2024; 11:56:41, 88576.4, 90953.56, 221.29, 0.44, 220.85, 219.45, 26.04, 3.91, 0.0000000, 0.0000000, 0.00, 1.5, -8.88, 0.0, 0N0N, 27.14, 335592
104, 1, 11011, 19/9/2024; 11:56:42, 82476.46, 90952.83, 815.81, 0.5, 815.31, 593.52, 26.09, 3.92, 0.0000000, 0.0000000, 0.00, 1.19, -8.62, 359.94, 0N0N, 27.09, 335592
105, 1, 11011, 19/9/2024; 11:56:43, 90910.54, 90952.7, 2.54, 0.52, 2.02, -810.85, 26.09, 3.91, 0.0000000, 0.0000000, 0.00, -3.25, -10.5, 359.62, 0N0N, 27.09, 335592
106, 1, 11011, 19/9/2024; 11:56:44, 90916.93, 90955.08, 1.95, 0.29, 1.66, -0.59, 26.11, 3.92, 0.0000000, 0.0000000, 0.00, -3.69, -11.38, 359.62, 0N0N, 27.07, 335592
107, 1, 11011, 19/9/2024; 11:56:45, 90908.53, 90952.13, 2.73, 0.57, 2.16, 0.78, 26.12, 3.92, 0.0000000, 0.0000000, 0.00, -3.44, -12.94, 359.69, 0N0N, 27.05, 335592
108, 1, 11011, 19/9/2024; 11:56:46, 90904.58, 90955.85, 3.1, 0.22, 2.88, 0.37, 26.12, 3.94, 0.0000000, 0.0000000, 0.00, -3.62, -14.06, 359.69, 0N0N, 27.03, 335592
109, 1, 11011, 19/9/2024; 11:56:47, 90939.31, 90956.94, -0.12, 0.12, 0.24, -3.22, 26.15, 3.92, 0.0000000, 0.0000000, 0.00, -4.69, -12.94, 359.56, 0N0N, 27.08, 335592
110, 1, 11011, 19/9/2024; 11:56:48, 90960.6, 90955.53, -2.1, 0.25, 2.35, -1.97, 26.2, 3.89, 0.0000000, 0.0000000, 0.00, -4.62, -11.19, 359.5, 0N0N, 27.1, 335592
111, 1, 11011, 19/9/2024; 11:56:49, 90933.56, 90955.13, 0.41, 0.29, 0.12, 2.51, 26.2, 3.94, 0.0000000, 0.0000000, 0.00, 0.31, -10.81, 359.94, 0N0N, 27.15, 335592
112, 1, 11011, 19/9/2024; 11:56:50, 90934.83, 90955.77, 0.29, 0.23, 0.06, -0.12, 26.23, 3.94, 0.0000000, 0.0000000, 0.00, -0.75, -4.38, 359.75, 0N0N, 27.2, 335592
113, 1, 11011, 19/9/2024; 11:56:51, 90936.18, 90955.46, 0.17, 0.26, 0.09, -0.12, 26.24, 3.92, 0.0000000, 0.0000000, 0.00, 13.31, 0.56, 0.25, 0N0N, 27.22, 335592
114, 1, 11011, 19/9/2024; 11:56:52, 90934.39, 90952.09, 0.33, 0.57, 0.24, 0.16, 26.27, 3.91, 0.0000000, 0.0000000, 0.00, 13.94, 2.0, 0.44, 0N0N, 27.24, 335592
115, 1, 11011, 19/9/2024; 11:56:53, 90931.61, 90952.43, 0.59, 0.54, 0.05, 0.26, 26.3, 3.96, 0.0000000, 0.0000000, 0.00, 13.38, 1.81, 0.38, 0N0N, 27.27, 335592
116, 1, 11011, 19/9/2024; 11:56:54, 90929.82, 90952.48, 0.76, 0.54, 0.22, 0.17, 26.3, 3.91, 0.0000000, 0.0000000, 0.00, 13.25, 1.69, 0.38, 0N0N, 27.29, 335592
117, 1, 11011, 19/9/2024; 11:56:55, 90981.8, 90952.45, -4.06, 0.54, 4.6, -4.81, 26.33, 3.89, 0.0000000, 0.0000000, 0.00, 12.62, 2.12, 0.44, 0N0N, 27.27, 335592
118, 1, 11011, 19/9/2024; 11:56:56, 90935.18, 90952.27, 0.26, 0.56, 0.3, 4.32, 26.34, 3.96, 0.0000000, 0.0000000, 0.00, 2.38, 2.38, 0.69, 0N0N, 27.22, 335592
119, 1, 11011, 19/9/2024; 11:56:57, 90957.28, 90953.88, -1.79, 0.41, 2.2, -2.05, 26.37, 3.89, 0.0000000, 0.0000000, 0.00, 1.5, 0.62, 0.69, 0N0N, 27.25, 335592
120, 1, 11011, 19/9/2024; 11:56:58, 90958.67, 90951.74, -1.92, 0.6, 2.52, -0.13, 26.38, 3.97, 0.0000000, 0.0000000, 0.00, 1.56, 2.88, 0.75, 0N0N, 27.27, 335592
121, 1, 11011, 19/9/2024; 11:56:59, 90943.3, 90952.99, -0.49, 0.49, 0.98, 1.43, 26.42, 3.96, 0.0000000, 0.0000000, 0.00, 1.19, -5.0, 0.69, 0N0N, 27.26, 335592
122, 1, 11011, 19/9/2024; 11:57:0, 90937.12, 90952.77, 0.08, 0.51, 0.43, 0.57, 26.43, 3.92, 0.0000000, 0.0000000, 0.00, 1.88, -7.31, 0.69, 0N0N, 27.26, 335592
123, 1, 11011, 19/9/2024; 11:57:1, 90943.52, 90951.59, -0.51, 0.62, 1.13, -0.59, 26.44, 3.94, 0.0000000, 0.0000000, 0.00, 2.12, -8.31, 0.69, 0N0N, 27.3, 335592
124, 1, 11011, 19/9/2024; 11:57:2, 90943.73, 90950.44, -0.53, 0.72, 1.25, -0.02, 26.48, 3.89, 0.0000000, 0.0000000, 0.00, 2.31, -8.38, 0.69, 0N0N, 27.31, 335592
125, 1, 11011, 19/9/2024; 11:57:3, 90946.73, 90949.41, -0.81, 0.82, 1.63, -0.28, 26.5, 3.96, 0.0000000, 0.0000000, 0.00, 3.25, -8.5, 0.75, 0N0N, 27.33, 335592
126, 1, 11011, 19/9/2024; 11:57:4, 90952.74, 90949.88, -1.37, 0.78, 2.15, -0.56, 26.52, 3.94, 0.0000000, 0.0000000, 0.00, 3.06, -7.06, 0.81, 0N0N, 27.34, 335592
127, 1, 11011, 19/9/2024; 11:57:5, 89660.65, 90949.77, 119.1, 0.79, 118.31, 117.04, 26.57, 3.88, 0.0000000, 0.0000000, 0.00, 1.81, -4.44, 0.81, 0N0N, 27.36, 335592
128, 1, 11011, 19/9/2024; 11:57:6, 90925.78, 90950.7, 1.13, 0.7, 0.43, -120.65, 26.56, 3.94, 0.0000000, 0.0000000, 0.00, 1.81, -4.44, 0.81, 0N0N, 27.37, 335592
129, 1, 11011, 19/9/2024; 11:57:7, 90925.23, 90954.53, 1.18, 0.35, 0.83, 0.05, 26.55, 3.94, 0.0000000, 0.0000000, 0.00, 1.81, -4.44, 0.81, 0N0N, 27.4, 335592
130, 1, 11011, 19/9/2024; 11:57:8, 90918.62, 90959.79, 1.8, -0.14, 1.94, 0.62, 26.55, 3.84, 0.0000000, 0.0000000, 0.00, 1.81, -4.44, 0.81, 0N0N, 27.41, 335592
131, 1, 11011, 19/9/2024; 11:57:9, 90923.62, 90956.2, 1.33, 0.19, 1.14, -0.47, 26.52, 3.92, 0.0000000, 0.0000000, 0.00, 1.81, -4.44, 0.81, 0N0N, 27.41, 335592
132, 1, 11011, 19/9/2024; 11:57:10, 90923.83, 90956.24, 1.31, 0.19, 1.12, -0.02, 26.54, 3.89, 0.0000000, 0.0000000, 0.00, 1.81, -4.44, 0.81, 0N0N, 27.43, 335592
133, 1, 11011, 19/9/2024; 11:57:11, 90921.83, 90958.15, 1.5, 0.01, 1.49, 0.19, 26.53, 3.97, 0.0000000, 0.0000000, 0.00, 1.81, -4.44, 0.81, 0N0N, 27.44, 335592
134, 1, 11011, 19/9/2024; 11:57:12, 90924.62, 90955.48, 1.24, 0.26, 0.98, -0.26, 26.55, 3.92, 0.0000000, 0.0000000, 0.00, 1.81, -4.44, 0.81, 0N0N, 27.45, 335592
135, 1, 11011, 19/9/2024; 11:57:13, 90951.9, 90954.48, -1.29, 0.35, 1.64, -2.53, 26.59, 3.97, 0.0000000, 0.0000000, 0.00, 1.81, -4.44, 0.81, 0N0N, 27.45, 335592
136, 1, 11011, 19/9/2024; 11:57:14, 90483.83, 90954.39, 42.19, 0.36, 41.83, 43.24, 26.66, 3.94, 0.0000000, 0.0000000, 0.00, -2.75, -6.62, 0.62, 0N0N, 27.46, 335592
137, 1, 11011, 19/9/2024; 11:57:15, 90976.69, 90952.25, -3.59, 0.56, 4.15, -45.64, 26.66, 3.94, 0.0000000, 0.0000000, 0.00, -4.38, -7.62, 0.56, 0N0N, 27.48, 335592
138, 1, 11011, 19/9/2024; 11:57:16, 90934.06, 90948.27, 0.36, 0.93, 0.57, 3.94, 26.71, 3.86, 0.0000000, 0.0000000, 0.00, -5.06, -7.12, 0.44, 0N0N, 27.5, 335592
139, 1, 11011, 19/9/2024; 11:57:17, 90919.25, 90951.72, 1.74, 0.61, 1.13, 1.38, 26.66, 3.83, 0.0000000, 0.0000000, 0.00, -4.94, -6.75, 0.44, 0N0N, 27.51, 335592
140, 1, 11011, 19/9/2024; 11:57:18, 90917.67, 90953.25, 1.88, 0.46, 1.42, 0.14, 26.62, 3.83, 0.0000000, 0.0000000, 0.00, -4.94, -6.75, 0.44, 0N0N, 27.52, 335592
141, 1, 11011, 19/9/2024; 11:57:19, 90916.85, 90956.23, 1.96, 0.19, 1.77, 0.08, 26.56, 3.89, 0.0000000, 0.0000000, 0.00, -4.88, -6.75, 0.44, 0N0N, 27.56, 335592
142, 1, 11011, 19/9/2024; 11:57:20, 90924.41, 90960.16, 1.26, -0.18, 1.44, -0.7, 26.46, 3.96, 0.0000000, 0.0000000, 0.00, -4.88, -6.75, 0.44, 0N0N, 27.6, 335592
143, 1, 11011, 19/9/2024; 11:57:21, 90920.06, 90960.89, 1.66, -0.24, 1.9, 0.4, 26.45, 3.96, 0.0000000, 0.0000000, 0.00, -4.69, -6.69, 0.44, 0N0N, 27.62, 335592
144, 1, 11011, 19/9/2024; 11:57:22, 90911.46, 90955.4, 2.46, 0.27, 2.19, 0.8, 26.41, 3.88, 0.0000000, 0.0000000, 0.00, -4.62, -6.81, 0.5, 0N0N, 27.62, 335592
145, 1, 11011, 19/9/2024; 11:57:23, 90922.83, 90953.13, 1.4, 0.48, 0.92, -1.05, 26.38, 3.86, 0.0000000, 0.0000000, 0.00, -4.44, -6.88, 0.5, 0N0N, 27.64, 335592
146, 1, 11011, 19/9/2024; 11:57:24, 90939.84, 90956.53, -0.17, 0.16, 0.33, -1.57, 26.39, 3.92, 0.0000000, 0.0000000, 0.00, -4.44, -7.19, 0.5, 0N0N, 27.67, 335592
147, 1, 11011, 19/9/2024; 11:57:25, 90939.65, 90957.93, -0.15, 0.03, 0.18, 0.02, 26.41, 3.91, 0.0000000, 0.0000000, 0.00, -4.5, -7.69, 0.5, 0N0N, 27.7, 335592
148, 1, 11011, 19/9/2024; 11:57:26, 90920.48, 90957.91, 1.62, 0.03, 1.59, 1.76, 26.45, 3.94, 0.0000000, 0.0000000, 0.00, -4.88, -8.12, 0.5, 0N0N, 27.72, 335592
149, 1, 11011, 19/9/2024; 11:57:27, 90922.89, 90959.88, 1.4, -0.15, 1.55, -0.22, 26.45, 3.96, 0.0000000, 0.0000000, 0.00, -4.88, -8.12, 0.5, 0N0N, 27.73, 335592
150, 1, 11011, 19/9/2024; 11:57:28, 90921.67, 90958.54, 1.51, -0.03, 1.54, 0.11, 26.43, 3.97, 0.0000000, 0.0000000, 0.00, -5.0, -8.19, 0.5, 0N0N, 27.71, 335592
151, 1, 11011, 19/9/2024; 11:57:29, 90927.48, 90957.42, 0.97, 0.08, 0.89, -0.54, 26.46, 3.91, 0.0000000, 0.0000000, 0.00, -5.06, -8.38, 0.5, 0N0N, 27.71, 335592
152, 1, 11011, 19/9/2024; 11:57:30, 90926.08, 90958.23, 1.1, 0.0, 1.1, 0.13, 26.47, 3.76, 0.0000000, 0.0000000, 0.00, -5.19, -8.44, 0.5, 0N0N, 27.69, 335592
153, 1, 11011, 19/9/2024; 11:57:31, 90929.25, 90956.6, 0.81, 0.15, 0.66, -0.29, 26.47, 3.92, 0.0000000, 0.0000000, 0.00, -5.5, -8.5, 0.5, 0N0N, 27.67, 335592
154, 1, 11011, 19/9/2024; 11:57:32, 90933.87, 90957.86, 0.38, 0.04, 0.34, -0.43, 26.44, 3.83, 0.0000000, 0.0000000, 0.00, -5.62, -8.56, 0.5, 0N0N, 27.78, 335592
155, 1, 11011, 19/9/2024; 11:57:33, 90929.85, 90957.92, 0.75, 0.03, 0.72, 0.37, 26.44, 3.81, 0.0000000, 0.0000000, 0.00, -5.38, -8.62, 0.5, 0N0N, 27.78, 335592
156, 1, 11011, 19/9/2024; 11:57:34, 90936.39, 90957.34, 0.15, 0.09, 0.06, -0.6, 26.42, 3.92, 0.0000000, 0.0000000, 0.00, -5.38, -8.62, 0.5, 0N0N, 27.8, 335592
157, 1, 11011, 19/9/2024; 11:57:35, 90944.63, 90955.16, -0.62, 0.29, 0.91, -0.77, 26.43, 3.96, 0.0000000, 0.0000000, 0.00, -5.38, -8.62, 0.5, 0N0N, 27.8, 335592
158, 1, 11011, 19/9/2024; 11:57:36, 90940.25, 90959.67, -0.21, -0.13, 0.08, 0.41, 26.45, 3.97, 0.0000000, 0.0000000, 0.00, -5.38, -8.62, 0.5, 0N0N, 27.76, 335592
159, 1, 11011, 19/9/2024; 11:57:37, 90937.27, 90960.35, 0.07, -0.19, 0.26, 0.28, 26.5, 3.94, 0.0000000, 0.0000000, 0.00, -5.38, -8.62, 0.5, 0N0N, 27.77, 335592
160, 1, 11011, 19/9/2024; 11:57:38, 90966.61, 90958.34, -2.65, -0.01, 2.64, -2.72, 26.53, 3.97, 0.0000000, 0.0000000, 0.00, -5.38, -8.62, 0.5, 0N0N, 27.74, 335592
161, 1, 11011, 19/9/2024; 11:57:39, 90951.42, 90959.48, -1.25, -0.11, 1.14, 1.39, 26.55, 3.92, 0.0000000, 0.0000000, 0.00, -5.38, -8.62, 0.5, 0N0N, 27.71, 335592
162, 1, 11011, 19/9/2024; 11:57:40, 90958.61, 90958.2, -1.91, 0.01, 1.92, -0.66, 26.58, 3.92, 0.0000000, 0.0000000, 0.00, -5.38, -8.62, 0.5, 0N0N, 27.7, 335592
163, 1, 11011, 19/9/2024; 11:57:41, 90849.99, 90954.57, 8.16, 0.34, 7.82, 10.05, 26.59, 3.96, 0.0000000, 0.0000000, 0.00, -5.38, -8.62, 0.5, 0N0N, 27.72, 335592
164, 1, 11011, 19/9/2024; 11:57:42, 90973.01, 90955.14, -3.25, 0.29, 3.54, -11.36, 26.57, 3.89, 0.0000000, 0.0000000, 0.00, -5.38, -8.62, 0.5, 0N0N, 27.72, 335592
165, 1, 11011, 19/9/2024; 11:57:43, 90971.22, 90955.65, -3.08, 0.24, 3.32, 0.17, 26.55, 3.94, 0.0000000, 0.0000000, 0.00, -4.56, -10.12, 0.62, 0N0N, 27.68, 335592
166, 1, 11011, 19/9/2024; 11:57:44, 91857.23, 90955.16, -84.88, 0.29, 85.17, -81.68, 26.54, 3.91, 0.0000000, 0.0000000, 0.00, -4.56, -10.12, 0.62, 0N0N, 27.62, 335592
167, 1, 11011, 19/9/2024; 11:57:45, 90947.63, 90957.93, -0.89, 0.03, 0.92, 83.86, 26.55, 3.92, 0.0000000, 0.0000000, 0.00, -4.56, -10.12, 0.62, 0N0N, 27.62, 335592
168, 1, 11011, 19/9/2024; 11:57:46, 91327.43, 90955.06, -36.04, 0.3, 36.34, -35.09, 26.6, 3.96, 0.0000000, 0.0000000, 0.00, -4.56, -10.12, 0.62, 0N0N, 27.7, 335592
169, 1, 11011, 19/9/2024; 11:57:47, 90967.64, 90954.08, -2.75, 0.39, 3.14, 33.21, 26.56, 3.91, 0.0000000, 0.0000000, 0.00, -4.56, -10.12, 0.62, 0N0N, 27.72, 335592
170, 1, 11011, 19/9/2024; 11:57:48, 90963.43, 90956.73, -2.36, 0.14, 2.5, 0.39, 26.55, 3.76, 0.0000000, 0.0000000, 0.00, -4.56, -10.12, 0.62, 0N0N, 27.73, 335592
171, 1, 11011, 19/9/2024; 11:57:57, 90998.45, 90952.73, -5.6, 0.51, 6.11, -0.38, 26.63, 3.86, 0.0000000, 0.0000000, 0.00, -1.81, -10.5, 0.88, 0N0N, 27.83, 335592
172, 1, 11111, 19/9/2024; 11:58:0, 90992.66, 0, -5.07, 44307.7, 44312.77, 0.15, 26.63, 0.00, 0.0000000, 0.0000000, 0.00, 1.88, -10.5, 1.25, 0N0N, 27.87, 335592
173, 1, 11011, 19/9/2024; 11:58:1, 90933.31, 90955.48, 0.43, 0.26, 0.17, 5.66, 26.84, 3.78, 0.0000000, 0.0000000, 0.00, 1.88, -10.5, 1.25, 0N0N, 27.87, 335592
174, 1, 11011, 19/9/2024; 11:58:2, 90934.71, 90955.38, 0.3, 0.27, 0.03, -0.13, 26.87, 3.96, 0.0000000, 0.0000000, 0.00, 4.5, -10.38, 1.44, 0N0N, 27.86, 335592
175, 1, 11011, 19/9/2024; 11:58:3, 90933.09, 90954.84, 0.45, 0.32, 0.13, 0.15, 26.81, 3.80, 0.0000000, 0.0000000, 0.00, 5.38, -10.62, 1.5, 0N0N, 27.87, 335592
176, 1, 11011, 19/9/2024; 11:58:4, 90951.27, 90953.13, -1.23, 0.48, 1.71, -1.67, 26.81, 3.96, 0.0000000, 0.0000000, 0.00, 5.81, -10.75, 1.56, 0N0N, 27.86, 335592
177, 1, 11011, 19/9/2024; 11:58:5, 90956.89, 90959.81, -1.75, -0.14, 1.61, -0.52, 26.79, 3.94, 0.0000000, 0.0000000, 0.00, 5.81, -10.75, 1.56, 0N0N, 27.87, 335592
178, 1, 11011, 19/9/2024; 11:58:6, 90953.71, 90961.1, -1.46, -0.26, 1.2, 0.29, 26.79, 3.88, 0.0000000, 0.0000000, 0.00, 5.81, -10.75, 1.56, 0N0N, 27.89, 335592
179, 1, 11011, 19/9/2024; 11:58:7, 90952.09, 90959.52, -1.31, -0.12, 1.19, 0.15, 26.77, 3.89, 0.0000000, 0.0000000, 0.00, 5.81, -10.75, 1.56, 0N0N, 27.88, 335592
180, 1, 11011, 19/9/2024; 11:58:8, 90960.87, 90953.97, -2.12, 0.4, 2.52, -0.81, 26.66, 3.80, 0.0000000, 0.0000000, 0.00, 6.69, -11.69, 1.56, 0N0N, 27.89, 335592
181, 1, 11011, 19/9/2024; 11:58:9, 215084.71, 90947.67, -7886.18, 0.98, 7887.16, -7870.05, 26.65, 3.97, 0.0000000, 0.0000000, 0.00, 6.69, -11.69, 1.56, 0N0N, 27.89, 335592
182, 1, 11011, 19/9/2024; 11:58:11, 90982.27, 90955.55, -4.11, 0.25, 4.36, 3877.64, 26.66, 3.99, 0.0000000, 0.0000000, 0.00, 8.62, -10.94, 1.81, 0N0N, 27.87, 335592
183, 1, 11011, 19/9/2024; 11:58:12, 90978.67, 90956.37, -3.77, 0.18, 3.95, 0.35, 26.65, 3.99, 0.0000000, 0.0000000, 0.00, 8.62, -10.94, 1.81, 0N0N, 27.91, 335592
184, 1, 11011, 19/9/2024; 11:58:13, 90945.09, 90952.76, -0.66, 0.51, 1.17, 3.1, 26.72, 3.96, 0.0000000, 0.0000000, 0.00, 8.62, -10.94, 1.81, 0N0N, 27.88, 335592
185, 1, 11011, 19/9/2024; 11:58:14, 90958.25, 90955.48, -1.88, 0.26, 2.14, -1.22, 26.74, 3.89, 0.0000000, 0.0000000, 0.00, 8.62, -10.94, 1.81, 0N0N, 27.87, 335592
186, 1, 11011, 19/9/2024; 11:58:15, 90958.06, 90954.34, -1.86, 0.36, 2.22, 0.02, 26.71, 3.91, 0.0000000, 0.0000000, 0.00, 8.62, -10.94, 1.81, 0N0N, 27.91, 335592
187, 1, 11011, 19/9/2024; 11:58:16, 90983.05, 90957.82, -4.18, 0.04, 4.22, -2.31, 26.69, 3.92, 0.0000000, 0.0000000, 0.00, 8.62, -10.94, 1.81, 0N0N, 27.89, 335592
188, 1, 11011, 19/9/2024; 11:58:17, 90959.24, 90956.44, -1.97, 0.17, 2.14, 2.2, 26.66, 3.91, 0.0000000, 0.0000000, 0.00, 8.62, -10.94, 1.81, 0N0N, 27.87, 335592
189, 1, 11011, 19/9/2024; 11:58:18, 90956.84, 90954.52, -1.75, 0.35, 2.1, 0.22, 26.71, 3.91, 0.0000000, 0.0000000, 0.00, 8.62, -10.94, 1.81, 0N0N, 27.79, 335592
190, 1, 11011, 19/9/2024; 11:58:19, 90946.86, 90958.47, -0.82, -0.02, 0.8, 0.93, 26.62, 3.89, 0.0000000, 0.0000000, 0.00, 8.62, -10.94, 1.81, 0N0N, 27.8, 335592
191, 1, 11011, 19/9/2024; 11:58:20, 90944.18, 90954.86, -0.58, 0.32, 0.9, 0.24, 26.49, 3.91, 0.0000000, 0.0000000, 0.00, 8.62, -10.94, 1.81, 0N0N, 27.83, 335592
192, 1, 11011, 19/9/2024; 11:58:21, 90950.55, 90954.38, -1.17, 0.36, 1.53, -0.59, 26.41, 3.96, 0.0000000, 0.0000000, 0.00, 8.62, -10.94, 1.81, 0N0N, 27.88, 335592
193, 1, 11011, 19/9/2024; 11:58:22, 90938.58, 90956.44, -0.06, 0.17, 0.23, 1.11, 26.36, 3.91, 0.0000000, 0.0000000, 0.00, 8.62, -10.94, 1.81, 0N0N, 27.87, 335592
194, 1, 11011, 19/9/2024; 11:58:23, 90946.94, 90954.6, -0.83, 0.34, 1.17, -0.77, 26.34, 3.91, 0.0000000, 0.0000000, 0.00, 8.62, -10.94, 1.81, 0N0N, 27.87, 335592
195, 1, 11011, 19/9/2024; 11:58:24, 90944.58, 90955.81, -0.61, 0.23, 0.84, 0.22, 26.33, 3.92, 0.0000000, 0.0000000, 0.00, 8.62, -10.94, 1.81, 0N0N, 27.83, 335592
196, 1, 11011, 19/9/2024; 11:58:25, 90940.51, 90953.75, -0.23, 0.42, 0.65, 0.38, 26.3, 3.96, 0.0000000, 0.0000000, 0.00, 8.62, -10.94, 1.81, 0N0N, 27.81, 335592
197, 1, 11011, 19/9/2024; 11:58:26, 90934.47, 90957.07, 0.33, 0.11, 0.22, 0.56, 26.23, 3.88, 0.0000000, 0.0000000, 0.00, 8.62, -10.94, 1.81, 0N0N, 27.86, 335592
198, 1, 11011, 19/9/2024; 11:58:27, 90937.08, 90956.16, 0.08, 0.19, 0.11, -0.25, 26.2, 3.92, 0.0000000, 0.0000000, 0.00, 8.62, -10.94, 1.81, 0N0N, 27.84, 335592
199, 1, 11011, 19/9/2024; 11:58:28, 90937.69, 90955.85, 0.03, 0.22, 0.19, -0.05, 26.2, 3.86, 0.0000000, 0.0000000, 0.00, 8.62, -10.94, 1.81, 0N0N, 27.86, 335592
200, 1, 11011, 19/9/2024; 11:58:29, 90937.51, 90956.41, 0.04, 0.17, 0.13, 0.01, 26.2, 3.91, 0.0000000, 0.0000000, 0.00, 8.62, -10.94, 1.81, 0N0N, 27.77, 335592
201, 1, 11011, 19/9/2024; 11:58:30, 90943.66, 90958.48, -0.53, -0.02, 0.51, -0.57, 26.21, 3.96, 0.0000000, 0.0000000, 0.00, 8.62, -10.94, 1.81, 0N0N, 27.75, 335592
202, 1, 11011, 19/9/2024; 11:58:31, 90944.44, 90958.51, -0.6, -0.02, 0.58, -0.07, 26.21, 3.89, 0.0000000, 0.0000000, 0.00, 8.62, -10.94, 1.81, 0N0N, 27.66, 335592
203, 1, 11011, 19/9/2024; 11:58:32, 90941.62, 90958.69, -0.34, -0.04, 0.3, 0.26, 26.17, 3.83, 0.0000000, 0.0000000, 0.00, 8.62, -10.94, 1.81, 0N0N, 27.65, 335592
204, 1, 11011, 19/9/2024; 11:58:33, 90974.36, 90955.49, -3.37, 0.26, 3.63, -3.03, 26.15, 3.97, 0.0000000, 0.0000000, 0.00, 8.62, -10.94, 1.81, 0N0N, 27.74, 335592
205, 1, 11011, 19/9/2024; 11:58:34, 91082.4, 90956.46, -13.38, 0.17, 13.55, -9.99, 26.08, 3.96, 0.0000000, 0.0000000, 0.00, 8.62, -10.94, 1.81, 0N0N, 27.66, 335592
206, 1, 11011, 19/9/2024; 11:58:35, 91034.71, 90957.08, -8.96, 0.11, 9.07, 4.41, 26.05, 3.94, 0.0000000, 0.0000000, 0.00, 8.69, -10.56, 1.88, 0N0N, 27.64, 335592
207, 1, 11011, 19/9/2024; 11:58:36, 90958.33, 90959.79, -1.89, -0.14, 1.75, 7.05, 26.08, 3.92, 0.0000000, 0.0000000, 0.00, 8.69, -10.56, 1.88, 0N0N, 27.56, 335592
208, 1, 11011, 19/9/2024; 11:58:37, 90976.14, 90958.96, -3.54, -0.06, 3.48, -1.65, 26.08, 3.91, 0.0000000, 0.0000000, 0.00, 8.69, -10.56, 1.88, 0N0N, 27.46, 335592
209, 1, 11011, 19/9/2024; 11:58:38, 90940.48, 90960.48, -0.23, -0.21, 0.02, 3.3, 26.03, 3.92, 0.0000000, 0.0000000, 0.00, 8.69, -10.56, 1.88, 0N0N, 27.38, 335592
210, 1, 11011, 19/9/2024; 11:58:39, 90941.7, 90960.2, -0.34, -0.18, 0.16, -0.11, 26.03, 3.92, 0.0000000, 0.0000000, 0.00, 8.69, -10.56, 1.88, 0N0N, 27.3, 335592
211, 1, 11011, 19/9/2024; 11:58:40, 90942.04, 90960.35, -0.38, -0.19, 0.19, -0.04, 26.01, 3.88, 0.0000000, 0.0000000, 0.00, 8.69, -10.56, 1.88, 0N0N, 27.18, 335592
212, 1, 11011, 19/9/2024; 11:58:41, 90937.64, 90961.37, 0.03, -0.29, 0.32, 0.41, 25.99, 3.92, 0.0000000, 0.0000000, 0.00, 8.69, -10.56, 1.88, 0N0N, 27.14, 335592
213, 1, 11011, 19/9/2024; 11:58:42, 90944.6, 90962.13, -0.61, -0.36, 0.25, -0.64, 25.97, 3.75, 0.0000000, 0.0000000, 0.00, 8.69, -10.56, 1.88, 0N0N, 27.08, 335592
214, 1, 11011, 19/9/2024; 11:58:43, 90942.32, 90961.4, -0.4, -0.29, 0.11, 0.21, 25.96, 3.88, 0.0000000, 0.0000000, 0.00, 8.56, -10.06, 1.88, 0N0N, 26.82, 335592
215, 1, 11011, 19/9/2024; 11:58:44, 90935.75, 90959.06, 0.21, -0.07, 0.28, 0.61, 25.89, 3.92, 0.0000000, 0.0000000, 0.00, 8.56, -10.06, 1.88, 0N0N, 26.55, 335592
216, 1, 11011, 19/9/2024; 11:58:45, 90948.11, 90961.05, -0.94, -0.26, 0.68, -1.15, 25.85, 3.75, 0.0000000, 0.0000000, 0.00, 8.56, -10.06, 1.88, 0N0N, 26.43, 335592
217, 1, 11011, 19/9/2024; 11:58:46, 90979.61, 90960.44, -3.86, -0.2, 3.66, -2.91, 25.9, 3.89, 0.0000000, 0.0000000, 0.00, 8.56, -10.06, 1.88, 0N0N, 26.45, 335592
218, 1, 11011, 19/9/2024; 11:58:47, 91000.15, 90960.99, -5.76, -0.25, 5.51, -1.89, 25.89, 3.81, 0.0000000, 0.0000000, 0.00, 8.44, -9.75, 1.94, 0N0N, 26.46, 335592
219, 1, 11011, 19/9/2024; 11:58:48, 90937.81, 90962.8, 0.02, -0.42, 0.44, 5.75, 25.91, 3.88, 0.0000000, 0.0000000, 0.00, 7.62, -8.56, 1.94, 0N0N, 26.47, 335592
220, 1, 11011, 19/9/2024; 11:58:49, 90939.82, 90969.26, -0.17, -1.02, 0.85, -0.19, 25.92, 3.75, 0.0000000, 0.0000000, 0.00, 7.19, -7.94, 1.94, 0N0N, 26.4, 335592
221, 1, 11011, 19/9/2024; 11:58:50, 90943.77, 90967.63, -0.54, -0.87, 0.33, -0.37, 25.94, 3.96, 0.0000000, 0.0000000, 0.00, 0.44, -1.25, 1.88, 0N0N, 26.33, 335592
222, 1, 11011, 19/9/2024; 11:58:51, 90953.39, 90969.18, -1.43, -1.01, 0.42, -0.89, 25.93, 3.86, 0.0000000, 0.0000000, 0.00, -0.19, -0.56, 1.88, 0N0N, 26.33, 335592
223, 1, 11011, 19/9/2024; 11:58:52, 90938.92, 90969.9, -0.09, -1.08, 0.99, 1.34, 25.91, 3.78, 0.0000000, 0.0000000, 0.00, -0.31, -0.44, 1.88, 0N0N, 26.25, 335592
224, 1, 11011, 19/9/2024; 11:58:53, 90947.72, 90970.82, -0.9, -1.16, 0.26, -0.81, 25.91, 3.97, 0.0000000, 0.0000000, 0.00, -0.31, -0.44, 1.88, 0N0N, 26.27, 335592
225, 1, 11011, 19/9/2024; 11:58:54, 90946.38, 90970.21, -0.78, -1.11, 0.33, 0.12, 25.94, 3.96, 0.0000000, 0.0000000, 0.00, -0.31, -0.44, 1.88, 0N0N, 26.25, 335592
226, 1, 11011, 19/9/2024; 11:58:55, 90952.5, 90971.04, -1.35, -1.18, 0.17, -0.57, 25.95, 3.92, 0.0000000, 0.0000000, 0.00, -0.31, -0.44, 1.88, 0N0N, 26.3, 335592
227, 1, 11011, 19/9/2024; 11:58:56, 90956.34, 90970.54, -1.7, -1.14, 0.56, -0.35, 25.97, 3.96, 0.0000000, 0.0000000, 0.00, -0.31, -0.44, 1.88, 0N0N, 26.36, 335592
228, 1, 11011, 19/9/2024; 11:58:57, 90949.0, 90971.46, -1.02, -1.22, 0.2, 0.68, 26.01, 3.80, 0.0000000, 0.0000000, 0.00, -0.44, -0.25, 1.88, 0N0N, 26.39, 335592
229, 1, 11011, 19/9/2024; 11:58:58, 90951.17, 90972.48, -1.22, -1.32, 0.1, -0.2, 26.02, 3.75, 0.0000000, 0.0000000, 0.00, -0.56, -0.06, 1.88, 0N0N, 26.37, 335592
230, 1, 11011, 19/9/2024; 11:58:59, 90945.99, 90970.09, -0.74, -1.1, 0.36, 0.48, 26.02, 3.81, 0.0000000, 0.0000000, 0.00, -0.62, 0.19, 1.88, 0N0N, 26.34, 335592
231, 1, 11011, 19/9/2024; 11:59:0, 90942.77, 90968.68, -0.44, -0.97, 0.53, 0.3, 26.0, 3.99, 0.0000000, 0.0000000, 0.00, -0.62, 0.19, 1.88, 0N0N, 26.38, 335592
232, 1, 11011, 19/9/2024; 11:59:1, 90949.17, 90965.01, -1.04, -0.63, 0.41, -0.6, 26.0, 3.84, 0.0000000, 0.0000000, 0.00, -3.25, -3.75, 1.88, 0N0N, 26.34, 335592
233, 1, 11011, 19/9/2024; 11:59:2, 90933.25, 90961.2, 0.44, -0.27, 0.71, 1.48, 26.04, 3.92, 0.0000000, 0.0000000, 0.00, -13.94, -17.06, 1.94, 0N0N, 26.37, 335592
234, 1, 11011, 19/9/2024; 11:59:3, 90936.03, 90961.73, 0.18, -0.32, 0.5, -0.26, 26.05, 3.97, 0.0000000, 0.0000000, 0.00, -14.44, -22.94, 2.62, 0N0N, 26.33, 335592
235, 1, 11011, 19/9/2024; 11:59:4, 90937.42, 90962.78, 0.05, -0.42, 0.47, -0.13, 26.06, 3.94, 0.0000000, 0.0000000, 0.00, -11.69, -19.12, 2.69, 0N0N, 26.31, 335592
236, 1, 11011, 19/9/2024; 11:59:5, 90939.04, 90961.94, -0.1, -0.34, 0.24, -0.15, 26.08, 3.99, 0.0000000, 0.0000000, 0.00, -2.81, -6.56, 2.81, 0N0N, 26.3, 335592
237, 1, 11011, 19/9/2024; 11:59:6, 90940.26, 90960.11, -0.21, -0.17, 0.04, -0.11, 26.11, 3.96, 0.0000000, 0.0000000, 0.00, 0.25, -2.0, 2.88, 0N0N, 26.27, 335592
238, 1, 11011, 19/9/2024; 11:59:7, 90942.26, 90963.05, -0.4, -0.44, 0.04, -0.19, 26.13, 3.94, 0.0000000, 0.0000000, 0.00, 0.62, -1.44, 2.94, 0N0N, 26.31, 335592
239, 1, 11011, 19/9/2024; 11:59:8, 90943.26, 90962.13, -0.49, -0.36, 0.13, -0.09, 26.16, 3.92, 0.0000000, 0.0000000, 0.00, 0.81, -1.19, 2.94, 0N0N, 26.27, 335592
240, 1, 11011, 19/9/2024; 11:59:9, 90939.65, 90961.27, -0.15, -0.28, 0.13, 0.34, 26.16, 3.91, 0.0000000, 0.0000000, 0.00, 0.88, -1.06, 2.94, 0N0N, 26.2, 335592
241, 1, 11011, 19/9/2024; 11:59:10, 90935.08, 90962.29, 0.27, -0.37, 0.64, 0.42, 26.16, 3.94, 0.0000000, 0.0000000, 0.00, 1.0, -0.94, 2.94, 0N0N, 26.2, 335592
242, 1, 11011, 19/9/2024; 11:59:11, 90934.69, 90961.01, 0.31, -0.25, 0.56, 0.04, 26.19, 3.86, 0.0000000, 0.0000000, 0.00, 1.0, -0.88, 2.94, 0N0N, 26.2, 335592
243, 1, 11011, 19/9/2024; 11:59:12, 90940.04, 90959.83, -0.19, -0.15, 0.04, -0.5, 26.2, 3.86, 0.0000000, 0.0000000, 0.00, 1.06, -0.88, 2.94, 0N0N, 26.18, 335592
244, 1, 11011, 19/9/2024; 11:59:13, 90931.47, 90960.04, 0.6, -0.16, 0.76, 0.79, 26.19, 3.89, 0.0000000, 0.0000000, 0.00, 1.06, -0.88, 2.94, 0N0N, 26.19, 335592
245, 1, 11011, 19/9/2024; 11:59:14, 90936.08, 90960.81, 0.18, -0.24, 0.42, -0.42, 26.2, 3.89, 0.0000000, 0.0000000, 0.00, 1.06, -0.81, 2.94, 0N0N, 26.16, 335592
246, 1, 11011, 19/9/2024; 11:59:15, 90935.69, 90960.74, 0.21, -0.23, 0.44, 0.03, 26.22, 3.80, 0.0000000, 0.0000000, 0.00, 1.06, -0.81, 2.94, 0N0N, 26.13, 335592
247, 1, 11011, 19/9/2024; 11:59:16, 90941.31, 90961.42, -0.31, -0.29, 0.02, -0.52, 26.25, 3.86, 0.0000000, 0.0000000, 0.00, 1.12, -0.81, 2.94, 0N0N, 26.11, 335592
248, 1, 11011, 19/9/2024; 11:59:17, 90937.3, 90960.15, 0.06, -0.18, 0.24, 0.37, 26.25, 3.92, 0.0000000, 0.0000000, 0.00, 1.12, -0.81, 2.94, 0N0N, 26.16, 335592
249, 1, 11011, 19/9/2024; 11:59:18, 90939.13, 90960.33, -0.11, -0.19, 0.08, -0.17, 26.26, 3.91, 0.0000000, 0.0000000, 0.00, 1.12, -0.75, 2.94, 0N0N, 26.18, 335592
250, 1, 11011, 19/9/2024; 11:59:19, 90939.35, 90961.02, -0.13, -0.26, 0.13, -0.02, 26.28, 3.84, 0.0000000, 0.0000000, 0.00, 1.12, -0.75, 2.94, 0N0N, 26.22, 335592
251, 1, 11011, 19/9/2024; 11:59:20, 90945.75, 90961.77, -0.72, -0.33, 0.39, -0.59, 26.3, 3.83, 0.0000000, 0.0000000, 0.00, 1.12, -0.75, 2.94, 0N0N, 26.28, 335592
252, 1, 11011, 19/9/2024; 11:59:21, 90944.36, 90963.11, -0.59, -0.45, 0.14, 0.13, 26.32, 3.94, 0.0000000, 0.0000000, 0.00, 1.12, -0.75, 2.94, 0N0N, 26.32, 335592
253, 1, 11011, 19/9/2024; 11:59:22, 90941.75, 90960.08, -0.35, -0.17, 0.18, 0.24, 26.34, 3.89, 0.0000000, 0.0000000, 0.00, 1.19, -0.69, 2.94, 0N0N, 26.28, 335592
254, 1, 11011, 19/9/2024; 11:59:23, 90942.75, 90958.3, -0.44, -0.0, 0.44, -0.09, 26.35, 3.96, 0.0000000, 0.0000000, 0.00, 1.19, -0.69, 2.94, 0N0N, 26.33, 335592
255, 1, 11011, 19/9/2024; 11:59:24, 90933.78, 90958.3, 0.39, -0.0, 0.39, 0.83, 26.37, 3.94, 0.0000000, 0.0000000, 0.00, -3.12, -2.44, 2.88, 0N0N, 26.41, 335592
256, 1, 11011, 19/9/2024; 11:59:26, 90945.58, 90958.59, -0.7, -0.03, 0.67, -1.09, 26.38, 3.94, 0.0000000, 0.0000000, 0.00, -11.31, -7.75, 2.88, 0N0N, 26.46, 335592
257, 1, 11011, 19/9/2024; 11:59:27, 90925.16, 90958.99, 1.19, -0.07, 1.26, 1.88, 26.41, 3.96, 0.0000000, 0.0000000, 0.00, -13.75, -9.56, 2.88, 0N0N, 26.47, 335592
258, 1, 11011, 19/9/2024; 11:59:28, 90934.96, 90958.48, 0.28, -0.02, 0.3, -0.91, 26.41, 3.91, 0.0000000, 0.0000000, 0.00, -17.38, -12.31, 2.94, 0N0N, 26.54, 335592
259, 1, 11011, 19/9/2024; 11:59:29, 90931.78, 90959.21, 0.57, -0.09, 0.66, 0.29, 26.45, 3.89, 0.0000000, 0.0000000, 0.00, -53.31, -35.5, 4.06, 0N0N, 26.57, 335592
260, 1, 11011, 19/9/2024; 11:59:30, 90925.21, 90959.66, 1.18, -0.13, 1.31, 0.61, 26.47, 3.96, 0.0000000, 0.0000000, 0.00, -71.75, -41.0, 4.62, 0N0N, 26.6, 335592
261, 1, 11011, 19/9/2024; 11:59:31, 90924.21, 90961.3, 1.28, -0.28, 1.56, 0.1, 26.49, 3.94, 0.0000000, 0.0000000, 0.00, -73.0, -41.25, 4.62, 0N0N, 26.65, 335592
262, 1, 11011, 19/9/2024; 11:59:32, 90933.39, 90961.25, 0.43, -0.28, 0.71, -0.85, 26.48, 3.86, 0.0000000, 0.0000000, 0.00, -73.88, -41.38, 4.56, 0N0N, 26.67, 335592
263, 1, 11011, 19/9/2024; 11:59:33, 90933.61, 90961.62, 0.41, -0.31, 0.72, -0.02, 26.5, 3.83, 0.0000000, 0.0000000, 0.00, -73.94, -41.31, 4.56, 0N0N, 26.71, 335592
264, 1, 11011, 19/9/2024; 11:59:34, 90932.82, 90962.38, 0.48, -0.38, 0.86, 0.07, 26.52, 3.84, 0.0000000, 0.0000000, 0.00, -73.75, -41.25, 4.5, 0N0N, 26.77, 335592
265, 1, 11011, 19/9/2024; 11:59:35, 90930.43, 90960.93, 0.7, -0.25, 0.95, 0.22, 26.53, 3.92, 0.0000000, 0.0000000, 0.00, -73.0, -40.94, 4.38, 0N0N, 26.8, 335592
266, 1, 11011, 19/9/2024; 11:59:36, 90925.25, 90958.66, 1.18, -0.04, 1.22, 0.48, 26.54, 3.86, 0.0000000, 0.0000000, 0.00, -72.0, -40.88, 4.44, 0N0N, 26.82, 335592
267, 1, 11011, 19/9/2024; 11:59:37, 90933.04, 90959.71, 0.46, -0.13, 0.59, -0.72, 26.57, 3.73, 0.0000000, 0.0000000, 0.00, -71.56, -40.75, 4.44, 0N0N, 26.84, 335592
268, 1, 11011, 19/9/2024; 11:59:38, 90926.47, 90961.84, 1.07, -0.33, 1.4, 0.61, 26.56, 3.88, 0.0000000, 0.0000000, 0.00, -71.31, -40.75, 4.44, 0N0N, 26.84, 335592
269, 1, 11011, 19/9/2024; 11:59:39, 90922.28, 90961.08, 1.46, -0.26, 1.72, 0.39, 26.58, 3.81, 0.0000000, 0.0000000, 0.00, -71.19, -40.75, 4.44, 0N0N, 26.87, 335592
270, 1, 11011, 19/9/2024; 11:59:40, 90931.08, 90959.59, 0.64, -0.12, 0.76, -0.81, 26.59, 3.89, 0.0000000, 0.0000000, 0.00, -71.19, -40.75, 4.44, 0N0N, 26.88, 335592
271, 1, 11011, 19/9/2024; 11:59:41, 90937.08, 90959.61, 0.08, -0.13, 0.21, -0.56, 26.6, 3.80, 0.0000000, 0.0000000, 0.00, -71.12, -40.69, 4.38, 0N0N, 26.92, 335592
272, 1, 11011, 19/9/2024; 11:59:42, 90933.29, 90958.69, 0.43, -0.04, 0.47, 0.35, 26.62, 3.84, 0.0000000, 0.0000000, 0.00, -71.12, -40.69, 4.44, 0N0N, 26.94, 335592
273, 1, 11011, 19/9/2024; 11:59:43, 90926.72, 90958.47, 1.04, -0.02, 1.06, 0.61, 26.61, 4.00, 0.0000000, 0.0000000, 0.00, -71.12, -40.69, 4.44, 0N0N, 26.95, 335592
274, 1, 11011, 19/9/2024; 11:59:44, 90929.33, 90959.55, 0.8, -0.12, 0.92, -0.24, 26.65, 3.96, 0.0000000, 0.0000000, 0.00, -71.12, -40.69, 4.44, 0N0N, 27.0, 335592
275, 1, 11011, 19/9/2024; 11:59:45, 90931.72, 90959.42, 0.58, -0.11, 0.69, -0.22, 26.65, 3.86, 0.0000000, 0.0000000, 0.00, -71.12, -40.69, 4.44, 0N0N, 26.99, 335592
276, 1, 11011, 19/9/2024; 11:59:46, 90925.75, 90959.04, 1.13, -0.07, 1.2, 0.55, 26.67, 3.92, 0.0000000, 0.0000000, 0.00, -71.31, -40.75, 4.44, 0N0N, 27.01, 335592
277, 1, 11011, 19/9/2024; 11:59:47, 90929.15, 90959.09, 0.82, -0.08, 0.9, -0.31, 26.67, 3.97, 0.0000000, 0.0000000, 0.00, -73.12, -40.94, 4.38, 0N0N, 27.03, 335592
278, 1, 11011, 19/9/2024; 11:59:48, 90926.96, 90958.96, 1.02, -0.06, 1.08, 0.2, 26.7, 3.99, 0.0000000, 0.0000000, 0.00, -73.75, -41.06, 4.38, 0N0N, 27.02, 335592
279, 1, 11011, 19/9/2024; 11:59:49, 90927.17, 90960.54, 1.0, -0.21, 1.21, -0.02, 26.72, 3.97, 0.0000000, 0.0000000, 0.00, -74.0, -41.06, 4.38, 0N0N, 27.01, 335592
280, 1, 11011, 19/9/2024; 11:59:50, 90924.39, 90961.28, 1.26, -0.28, 1.54, 0.26, 26.73, 3.97, 0.0000000, 0.0000000, 0.00, -73.56, -41.0, 4.31, 0N0N, 27.02, 335592
281, 1, 11011, 19/9/2024; 11:59:51, 90922.6, 90960.6, 1.43, -0.22, 1.65, 0.17, 26.74, 3.94, 0.0000000, 0.0000000, 0.00, -73.75, -41.5, 4.75, 0N0N, 27.05, 335592
282, 1, 11011, 19/9/2024; 11:59:52, 90935.42, 90959.52, 0.24, -0.12, 0.36, -1.19, 26.74, 3.94, 0.0000000, 0.0000000, 0.00, -73.56, -41.75, 4.94, 0N0N, 27.1, 335592
283, 1, 11011, 19/9/2024; 11:59:53, 90934.63, 90960.22, 0.31, -0.18, 0.49, 0.07, 26.76, 3.99, 0.0000000, 0.0000000, 0.00, -63.75, -39.56, 4.75, 0N0N, 27.15, 335592
284, 1, 11011, 19/9/2024; 11:59:54, 90938.63, 90960.98, -0.06, -0.25, 0.19, -0.37, 26.77, 3.97, 0.0000000, 0.0000000, 0.00, -56.44, -37.31, 4.62, 0N0N, 27.18, 335592
285, 1, 11011, 19/9/2024; 11:59:55, 90936.63, 90958.95, 0.13, -0.06, 0.19, 0.19, 26.8, 3.92, 0.0000000, 0.0000000, 0.00, -28.75, -24.56, 5.0, 0N0N, 27.13, 335592
286, 1, 11011, 19/9/2024; 11:59:56, 90941.04, 90962.55, -0.28, -0.4, 0.12, -0.41, 26.83, 3.96, 0.0000000, 0.0000000, 0.00, -25.31, -22.38, 5.06, 0N0N, 27.09, 335592
287, 1, 11011, 19/9/2024; 11:59:57, 90934.06, 90959.66, 0.36, -0.13, 0.49, 0.64, 26.84, 3.96, 0.0000000, 0.0000000, 0.00, -15.06, -14.75, 5.19, 0N0N, 27.05, 335592
288, 1, 11011, 19/9/2024; 11:59:58, 90938.23, 90961.7, -0.02, -0.32, 0.3, -0.38, 26.84, 3.99, 0.0000000, 0.0000000, 0.00, -8.62, -9.44, 5.31, 0N0N, 27.09, 335592
289, 1, 11011, 19/9/2024; 11:59:59, 90937.63, 90961.27, 0.03, -0.28, 0.31, 0.05, 26.83, 3.94, 0.0000000, 0.0000000, 0.00, -7.88, -8.75, 5.31, 0N0N, 27.15, 335592
290, 1, 11011, 19/9/2024; 12:0:0, 90934.6, 90960.34, 0.31, -0.19, 0.5, 0.28, 26.77, 3.94, 0.0000000, 0.0000000, 0.00, -7.31, -8.38, 5.31, 0N0N, 27.22, 335592
291, 1, 11011, 19/9/2024; 12:0:1, 90936.67, 90959.59, 0.12, -0.12, 0.24, -0.19, 26.82, 3.92, 0.0000000, 0.0000000, 0.00, -6.88, -8.0, 5.38, 0N0N, 27.18, 335592
292, 1, 11011, 19/9/2024; 12:0:2, 90935.48, 90961.08, 0.23, -0.26, 0.49, 0.11, 26.84, 3.97, 0.0000000, 0.0000000, 0.00, -6.5, -7.56, 5.38, 0N0N, 27.12, 335592
293, 1, 11011, 19/9/2024; 12:0:3, 90934.68, 90959.31, 0.31, -0.1, 0.41, 0.08, 26.87, 3.96, 0.0000000, 0.0000000, 0.00, -6.38, -7.5, 5.38, 0N0N, 26.94, 335592
294, 1, 11011, 19/9/2024; 12:0:4, 90938.48, 90962.72, -0.05, -0.41, 0.36, -0.36, 26.88, 3.96, 0.0000000, 0.0000000, 0.00, -4.62, -6.38, 5.38, 0N0N, 26.83, 335592
295, 1, 11011, 19/9/2024; 12:0:5, 90925.08, 90959.65, 1.2, -0.13, 1.33, 1.25, 26.83, 3.92, 0.0000000, 0.0000000, 0.00, -3.62, -5.44, 5.44, 0N0N, 26.7, 335592
296, 1, 11011, 19/9/2024; 12:0:6, 90951.65, 90959.29, -1.27, -0.1, 1.17, -2.46, 26.8, 3.94, 0.0000000, 0.0000000, 0.00, -3.62, -5.44, 5.44, 0N0N, 26.62, 335592
297, 1, 11011, 19/9/2024; 12:0:7, 90936.68, 90959.63, 0.12, -0.13, 0.25, 1.39, 26.83, 3.94, 0.0000000, 0.0000000, 0.00, -3.0, -4.69, 5.44, 0N0N, 26.59, 335592
298, 1, 11011, 19/9/2024; 12:0:8, 90926.29, 90961.52, 1.08, -0.3, 1.38, 0.96, 26.84, 3.92, 0.0000000, 0.0000000, 0.00, -3.0, -12.69, 5.44, 0N0N, 26.52, 335592
299, 1, 11011, 19/9/2024; 12:0:9, 90928.29, 90961.13, 0.9, -0.27, 1.17, -0.18, 26.8, 3.94, 0.0000000, 0.0000000, 0.00, -3.06, -4.62, 5.44, 0N0N, 26.56, 335592
300, 1, 11011, 19/9/2024; 12:0:10, 90935.08, 90960.22, 0.27, -0.18, 0.45, -0.63, 26.82, 3.89, 0.0000000, 0.0000000, 0.00, -3.19, -4.44, 5.44, 0N0N, 26.53, 335592
301, 1, 11011, 19/9/2024; 12:0:11, 90935.29, 90960.73, 0.25, -0.23, 0.48, -0.02, 26.81, 3.89, 0.0000000, 0.0000000, 0.00, -4.38, -2.69, 5.31, 0N0N, 26.52, 335592
302, 1, 11011, 19/9/2024; 12:0:12, 90933.49, 90963.4, 0.42, -0.48, 0.9, 0.17, 26.81, 3.83, 0.0000000, 0.0000000, 0.00, -4.31, -2.69, 5.31, 0N0N, 26.45, 335592
303, 1, 11011, 19/9/2024; 12:0:13, 90942.28, 90962.76, -0.4, -0.42, 0.02, -0.82, 26.83, 3.84, 0.0000000, 0.0000000, 0.00, -2.81, -2.56, 5.38, 0N0N, 26.34, 335592
304, 1, 11011, 19/9/2024; 12:0:14, 90940.89, 90962.27, -0.27, -0.37, 0.1, 0.13, 26.83, 3.96, 0.0000000, 0.0000000, 0.00, -2.25, -2.38, 5.38, 0N0N, 26.27, 335592
305, 1, 11011, 19/9/2024; 12:0:15, 90944.08, 90961.69, -0.57, -0.32, 0.25, -0.3, 26.81, 3.75, 0.0000000, 0.0000000, 0.00, -1.75, -2.31, 5.38, 0N0N, 26.25, 335592
306, 1, 11011, 19/9/2024; 12:0:16, 90944.28, 90963.5, -0.58, -0.49, 0.09, -0.01, 26.81, 3.84, 0.0000000, 0.0000000, 0.00, -1.19, -2.31, -2042.62, 0N0N, 26.26, 335592
307, 1, 11011, 19/9/2024; 12:0:17, 90943.09, 90961.45, -0.47, -0.3, 0.17, 0.11, 26.86, 3.86, 0.0000000, 0.0000000, 0.00, -0.94, -2.31, 5.38, 0N0N, 26.23, 335592
308, 1, 11011, 19/9/2024; 12:0:18, 90938.9, 90961.34, -0.09, -0.29, 0.2, 0.38, 26.88, 3.86, 0.0000000, 0.0000000, 0.00, -0.94, -2.31, 5.38, 0N0N, 26.23, 335592
309, 1, 11011, 19/9/2024; 12:0:19, 90939.3, 90960.13, -0.12, -0.17, 0.05, -0.03, 26.91, 3.83, 0.0000000, 0.0000000, 0.00, -0.94, -2.31, 5.38, 0N0N, 26.3, 335592
310, 1, 11011, 19/9/2024; 12:0:20, 90935.1, 90960.88, 0.27, -0.24, 0.51, 0.39, 26.92, 3.94, 0.0000000, 0.0000000, 0.00, -0.94, -2.31, 5.38, 0N0N, 26.23, 335592
311, 1, 11011, 19/9/2024; 12:0:21, 90936.71, 90961.38, 0.12, -0.29, 0.41, -0.15, 26.94, 3.91, 0.0000000, 0.0000000, 0.00, -0.81, -2.19, 5.38, 0N0N, 26.23, 335592
312, 1, 11011, 19/9/2024; 12:0:22, 90942.69, 90960.08, -0.44, -0.17, 0.27, -0.56, 26.91, 3.92, 0.0000000, 0.0000000, 0.00, -0.69, -2.19, 5.38, 0N0N, 26.16, 335592
313, 1, 11011, 19/9/2024; 12:0:23, 90936.1, 90961.4, 0.17, -0.29, 0.46, 0.61, 26.91, 3.94, 0.0000000, 0.0000000, 0.00, -0.69, -2.19, 5.38, 0N0N, 26.1, 335592
314, 1, 11011, 19/9/2024; 12:0:24, 90936.31, 90960.57, 0.16, -0.21, 0.37, -0.01, 26.91, 3.91, 0.0000000, 0.0000000, 0.00, -0.62, -2.19, 5.38, 0N0N, 26.09, 335592
315, 1, 11011, 19/9/2024; 12:0:25, 90932.32, 90961.46, 0.53, -0.3, 0.83, 0.37, 26.94, 3.86, 0.0000000, 0.0000000, 0.00, -0.62, -2.19, 5.38, 0N0N, 26.08, 335592
316, 1, 11011, 19/9/2024; 12:0:26, 90930.31, 90959.58, 0.71, -0.12, 0.83, 0.18, 26.94, 3.81, 0.0000000, 0.0000000, 0.00, -0.62, -2.19, 5.38, 0N0N, 26.04, 335592
317, 1, 11011, 19/9/2024; 12:0:27, 90936.51, 90960.42, 0.14, -0.2, 0.34, -0.57, 26.92, 3.73, 0.0000000, 0.0000000, 0.00, -0.62, -2.19, 5.38, 0N0N, 26.05, 335592
318, 1, 11011, 19/9/2024; 12:0:28, 90938.11, 90961.24, -0.01, -0.28, 0.27, -0.15, 26.94, 3.92, 0.0000000, 0.0000000, 0.00, -0.62, -2.19, 5.38, 0N0N, 26.09, 335592
319, 1, 11011, 19/9/2024; 12:0:29, 90937.11, 90961.2, 0.08, -0.27, 0.35, 0.09, 26.97, 3.89, 0.0000000, 0.0000000, 0.00, -0.56, -2.25, 5.38, 0N0N, 26.06, 335592
320, 1, 11011, 19/9/2024; 12:0:30, 90936.31, 90963.26, 0.15, -0.46, 0.61, 0.07, 26.99, 3.89, 0.0000000, 0.0000000, 0.00, -0.5, -2.25, 5.38, 0N0N, 26.03, 335592
321, 1, 11011, 19/9/2024; 12:0:31, 90943.51, 90959.33, -0.51, -0.1, 0.41, -0.66, 27.01, 3.94, 0.0000000, 0.0000000, 0.00, -0.5, -2.25, 5.38, 0N0N, 26.02, 335592
322, 1, 11011, 19/9/2024; 12:0:32, 90934.92, 90961.1, 0.28, -0.26, 0.54, 0.79, 26.99, 3.91, 0.0000000, 0.0000000, 0.00, -0.5, -2.25, 5.38, 0N0N, 26.02, 335592
323, 1, 11011, 19/9/2024; 12:0:33, 90934.31, 90960.17, 0.34, -0.18, 0.52, 0.06, 26.99, 3.86, 0.0000000, 0.0000000, 0.00, -0.5, -2.25, 5.38, 0N0N, 26.02, 335592
324, 1, 11011, 19/9/2024; 12:0:34, 90932.32, 90961.04, 0.52, -0.26, 0.78, 0.18, 27.03, 3.89, 0.0000000, 0.0000000, 0.00, -0.5, -2.25, 5.38, 0N0N, 25.9, 335592
325, 1, 11011, 19/9/2024; 12:0:35, 90942.91, 90959.32, -0.46, -0.1, 0.36, -0.98, 27.03, 3.80, 0.0000000, 0.0000000, 0.00, -0.5, -2.25, 5.38, 0N0N, 25.9, 335592
326, 1, 11011, 19/9/2024; 12:0:36, 90930.92, 90961.55, 0.65, -0.3, 0.95, 1.11, 27.05, 3.88, 0.0000000, 0.0000000, 0.00, -0.5, -2.25, 5.38, 0N0N, 25.86, 335592
327, 1, 11011, 19/9/2024; 12:0:37, 90939.92, 90961.43, -0.18, -0.29, 0.11, -0.83, 27.09, 3.91, 0.0000000, 0.0000000, 0.00, -0.5, -2.38, 5.38, 0N0N, 25.85, 335592
328, 1, 11011, 19/9/2024; 12:0:38, 90939.32, 90959.07, -0.12, -0.08, 0.04, 0.06, 27.1, 3.89, 0.0000000, 0.0000000, 0.00, -0.38, -2.25, 5.38, 0N0N, 25.84, 335592
329, 1, 11011, 19/9/2024; 12:0:39, 90936.72, 90958.78, 0.12, -0.05, 0.17, 0.24, 27.1, 3.91, 0.0000000, 0.0000000, 0.00, -0.38, -2.25, 5.38, 0N0N, 25.8, 335592
330, 1, 11011, 19/9/2024; 12:0:40, 90937.32, 90960.72, 0.06, -0.23, 0.29, -0.06, 27.14, 3.86, 0.0000000, 0.0000000, 0.00, -0.38, -2.25, 5.38, 0N0N, 25.76, 335592
331, 1, 11011, 19/9/2024; 12:0:41, 90933.72, 90960.27, 0.4, -0.19, 0.59, 0.34, 27.15, 3.76, 0.0000000, 0.0000000, 0.00, -0.38, -2.25, 5.38, 0N0N, 25.73, 335592
332, 1, 11011, 19/9/2024; 12:0:42, 90937.12, 90960.05, 0.08, -0.17, 0.25, -0.32, 27.19, 3.88, 0.0000000, 0.0000000, 0.00, -0.38, -2.25, 5.38, 0N0N, 25.77, 335592
333, 1, 11011, 19/9/2024; 12:0:43, 90939.12, 90960.93, -0.11, -0.25, 0.14, -0.19, 27.18, 3.89, 0.0000000, 0.0000000, 0.00, 0.06, 0.75, 5.38, 0N0N, 25.8, 335592
334, 1, 11011, 19/9/2024; 12:0:44, 90943.91, 90961.2, -0.55, -0.27, 0.28, -0.44, 27.23, 3.73, 0.0000000, 0.0000000, 0.00, -0.25, -0.56, 5.38, 0N0N, 25.84, 335592
335, 1, 11011, 19/9/2024; 12:0:45, 90936.71, 90959.88, 0.12, -0.15, 0.27, 0.67, 27.22, 3.80, 0.0000000, 0.0000000, 0.00, -0.31, -1.0, 5.38, 0N0N, 25.86, 335592
336, 1, 11011, 19/9/2024; 12:0:46, 90947.31, 90961.48, -0.86, -0.3, 0.56, -0.98, 27.23, 3.84, 0.0000000, 0.0000000, 0.00, -0.38, -1.12, 5.38, 0N0N, 25.91, 335592
337, 1, 11011, 19/9/2024; 12:0:47, 90936.91, 90960.02, 0.1, -0.16, 0.26, 0.95, 27.23, 3.88, 0.0000000, 0.0000000, 0.00, -0.38, -1.19, 5.38, 0N0N, 25.94, 335592
338, 1, 11011, 19/9/2024; 12:0:48, 90937.91, 90960.85, 0.01, -0.24, 0.25, -0.09, 27.26, 3.89, 0.0000000, 0.0000000, 0.00, -0.38, -1.31, 5.38, 0N0N, 25.98, 335592
339, 1, 11011, 19/9/2024; 12:0:49, 90940.7, 90961.2, -0.25, -0.27, 0.02, -0.26, 27.28, 3.86, 0.0000000, 0.0000000, 0.00, -0.38, -1.38, 5.38, 0N0N, 25.98, 335592
340, 1, 11011, 19/9/2024; 12:0:50, 90940.3, 90962.41, -0.21, -0.38, 0.17, 0.04, 27.28, 3.89, 0.0000000, 0.0000000, 0.00, -0.38, -1.38, 5.38, 0N0N, 26.02, 335592
341, 1, 11011, 19/9/2024; 12:0:51, 90946.3, 90959.47, -0.77, -0.11, 0.66, -0.56, 27.29, 3.88, 0.0000000, 0.0000000, 0.00, -0.38, -1.38, 5.38, 0N0N, 26.02, 335592
342, 1, 11011, 19/9/2024; 12:0:52, 90944.11, 90960.55, -0.57, -0.21, 0.36, 0.2, 27.28, 3.91, 0.0000000, 0.0000000, 0.00, -0.38, -1.38, 5.38, 0N0N, 26.01, 335592
343, 1, 11011, 19/9/2024; 12:0:53, 90950.09, 90960.73, -1.12, -0.23, 0.89, -0.55, 27.3, 3.76, 0.0000000, 0.0000000, 0.00, -0.38, -1.38, 5.38, 0N0N, 25.99, 335592
344, 1, 11011, 19/9/2024; 12:0:54, 90944.09, 90960.05, -0.57, -0.17, 0.4, 0.55, 27.34, 3.73, 0.0000000, 0.0000000, 0.00, -0.38, -1.38, 5.38, 0N0N, 26.01, 335592
345, 1, 11011, 19/9/2024; 12:0:55, 90942.69, 90960.14, -0.44, -0.17, 0.27, 0.13, 27.33, 3.71, 0.0000000, 0.0000000, 0.00, -0.38, -1.38, 5.38, 0N0N, 25.98, 335592
346, 1, 11011, 19/9/2024; 12:0:56, 90941.08, 90961.41, -0.29, -0.29, 0.0, 0.15, 27.37, 3.76, 0.0000000, 0.0000000, 0.00, -0.38, -1.5, 5.38, 0N0N, 26.11, 335592
347, 1, 11011, 19/9/2024; 12:0:57, 90948.47, 90961.85, -0.97, -0.33, 0.64, -0.68, 27.38, 3.86, 0.0000000, 0.0000000, 0.00, -0.38, -1.56, 5.38, 0N0N, 26.18, 335592
348, 1, 11011, 19/9/2024; 12:0:58, 90943.27, 90959.21, -0.49, -0.09, 0.4, 0.48, 27.41, 3.78, 0.0000000, 0.0000000, 0.00, -0.44, -1.56, 5.38, 0N0N, 26.17, 335592
349, 1, 11011, 19/9/2024; 12:0:59, 90940.07, 90960.2, -0.19, -0.18, 0.01, 0.3, 27.43, 3.94, 0.0000000, 0.0000000, 0.00, -0.44, -1.56, 5.38, 0N0N, 26.18, 335592
350, 1, 11011, 19/9/2024; 12:1:0, 90938.26, 90958.36, -0.03, -0.01, 0.02, 0.16, 27.45, 3.91, 0.0000000, 0.0000000, 0.00, -0.44, -1.56, 5.38, 0N0N, 26.23, 335592
351, 1, 11011, 19/9/2024; 12:1:1, 90943.25, 90959.66, -0.49, -0.13, 0.36, -0.46, 27.45, 3.80, 0.0000000, 0.0000000, 0.00, -0.44, -1.56, 5.38, 0N0N, 26.23, 335592
352, 1, 11011, 19/9/2024; 12:1:2, 90937.46, 90960.34, 0.05, -0.19, 0.24, 0.54, 27.47, 3.88, 0.0000000, 0.0000000, 0.00, -0.44, -1.56, 5.38, 0N0N, 26.23, 335592
353, 1, 11011, 19/9/2024; 12:1:3, 90941.45, 90959.63, -0.32, -0.13, 0.19, -0.37, 27.49, 3.73, 0.0000000, 0.0000000, 0.00, -0.44, -1.56, 5.38, 0N0N, 26.29, 335592
354, 1, 11011, 19/9/2024; 12:1:4, 90938.24, 90960.32, -0.02, -0.19, 0.17, 0.3, 27.52, 3.89, 0.0000000, 0.0000000, 0.00, -0.44, -1.56, 5.38, 0N0N, 26.33, 335592
355, 1, 11011, 19/9/2024; 12:1:5, 90934.63, 90959.87, 0.31, -0.15, 0.46, 0.33, 27.52, 3.92, 0.0000000, 0.0000000, 0.00, -0.38, -1.56, 5.38, 0N0N, 26.3, 335592
356, 1, 11011, 19/9/2024; 12:1:6, 90936.03, 90959.58, 0.18, -0.12, 0.3, -0.13, 27.54, 3.92, 0.0000000, 0.0000000, 0.00, -0.44, -1.62, 5.38, 0N0N, 26.25, 335592
357, 1, 11011, 19/9/2024; 12:1:7, 90941.24, 90962.2, -0.3, -0.37, 0.07, -0.48, 27.52, 3.89, 0.0000000, 0.0000000, 0.00, -0.44, -1.62, 5.38, 0N0N, 26.23, 335592
358, 1, 11011, 19/9/2024; 12:1:8, 90940.62, 90961.23, -0.24, -0.28, 0.04, 0.06, 27.54, 3.88, 0.0000000, 0.0000000, 0.00, -0.44, -1.62, 5.38, 0N0N, 26.24, 335592
359, 1, 11011, 19/9/2024; 12:1:9, 90938.81, 90961.25, -0.08, -0.28, 0.2, 0.16, 27.57, 3.89, 0.0000000, 0.0000000, 0.00, -0.44, -1.62, 5.38, 0N0N, 26.21, 335592
360, 1, 11011, 19/9/2024; 12:1:10, 90943.81, 90958.67, -0.54, -0.04, 0.5, -0.46, 27.59, 3.91, 0.0000000, 0.0000000, 0.00, -0.44, -1.62, 5.38, 0N0N, 26.2, 335592
361, 1, 11011, 19/9/2024; 12:1:11, 90937.6, 90959.62, 0.04, -0.13, 0.17, 0.58, 27.6, 3.94, 0.0000000, 0.0000000, 0.00, -0.44, -1.62, 5.38, 0N0N, 26.18, 335592
362, 1, 11011, 19/9/2024; 12:1:12, 90933.39, 90958.47, 0.43, -0.02, 0.45, 0.39, 27.62, 3.91, 0.0000000, 0.0000000, 0.00, -0.5, -1.69, 5.38, 0N0N, 26.19, 335592
363, 1, 11011, 19/9/2024; 12:1:13, 90936.39, 90960.03, 0.15, -0.16, 0.31, -0.28, 27.61, 3.92, 0.0000000, 0.0000000, 0.00, -0.5, -1.69, 5.38, 0N0N, 26.24, 335592
364, 1, 11011, 19/9/2024; 12:1:14, 90939.6, 90960.84, -0.15, -0.24, 0.09, -0.3, 27.62, 3.92, 0.0000000, 0.0000000, 0.00, -0.5, -1.69, 5.38, 0N0N, 26.29, 335592
365, 1, 11011, 19/9/2024; 12:1:15, 90929.78, 90958.9, 0.76, -0.06, 0.82, 0.91, 27.62, 3.92, 0.0000000, 0.0000000, 0.00, -0.5, -1.69, 5.38, 0N0N, 26.27, 335592
366, 1, 11011, 19/9/2024; 12:1:16, 90936.58, 90960.54, 0.13, -0.21, 0.34, -0.63, 27.65, 3.91, 0.0000000, 0.0000000, 0.00, -0.5, -1.69, 5.38, 0N0N, 26.27, 335592
367, 1, 11011, 19/9/2024; 12:1:17, 90946.37, 90961.63, -0.78, -0.31, 0.47, -0.91, 27.65, 3.86, 0.0000000, 0.0000000, 0.00, -0.5, -1.69, 5.38, 0N0N, 26.22, 335592
368, 1, 11011, 19/9/2024; 12:1:18, 90941.57, 90960.31, -0.33, -0.19, 0.14, 0.45, 27.66, 3.92, 0.0000000, 0.0000000, 0.00, -0.5, -1.69, 5.38, 0N0N, 26.21, 335592
369, 1, 11011, 19/9/2024; 12:1:19, 90943.75, 90961.34, -0.53, -0.29, 0.24, -0.2, 27.71, 3.89, 0.0000000, 0.0000000, 0.00, -0.44, -1.69, 5.38, 0N0N, 26.17, 335592
370, 1, 11011, 19/9/2024; 12:1:20, 90930.53, 90960.73, 0.69, -0.23, 0.92, 1.22, 27.73, 3.88, 0.0000000, 0.0000000, 0.00, -0.44, -1.75, 5.38, 0N0N, 26.15, 335592
371, 1, 11011, 19/9/2024; 12:1:21, 90938.32, 90962.89, -0.03, -0.43, 0.4, -0.72, 27.74, 3.92, 0.0000000, 0.0000000, 0.00, -0.44, -1.75, 5.38, 0N0N, 26.11, 335592
372, 1, 11011, 19/9/2024; 12:1:22, 90926.31, 90960.18, 1.08, -0.18, 1.26, 1.11, 27.76, 3.89, 0.0000000, 0.0000000, 0.00, -5.5, -3.62, 5.31, 0N0N, 26.0, 335592
373, 1, 11011, 19/9/2024; 12:1:23, 90926.31, 90962.03, 1.08, -0.35, 1.43, 0.0, 27.77, 3.91, 0.0000000, 0.0000000, 0.00, -9.94, -5.31, 5.25, 0N0N, 25.97, 335592
374, 1, 11011, 19/9/2024; 12:1:24, 90922.69, 90957.97, 1.42, 0.03, 1.39, 0.34, 27.81, 3.94, 0.0000000, 0.0000000, 0.00, -12.88, -8.94, 5.44, 0N0N, 25.94, 335592
375, 1, 11011, 19/9/2024; 12:1:25, 90928.09, 90958.87, 0.92, -0.06, 0.98, -0.5, 27.83, 3.76, 0.0000000, 0.0000000, 0.00, -14.38, -11.62, 5.62, 0N0N, 25.94, 335592
376, 1, 11011, 19/9/2024; 12:1:26, 90930.71, 90959.87, 0.67, -0.15, 0.82, -0.25, 27.84, 3.83, 0.0000000, 0.0000000, 0.00, -18.44, -19.56, 6.25, 0N0N, 26.02, 335592
377, 1, 11011, 19/9/2024; 12:1:27, 90929.31, 90960.3, 0.8, -0.19, 0.99, 0.13, 27.87, 3.86, 0.0000000, 0.0000000, 0.00, -27.38, -33.12, 7.38, 0N0N, 26.05, 335592
378, 1, 11011, 19/9/2024; 12:1:28, 90929.09, 90961.98, 0.82, -0.34, 1.16, 0.02, 27.89, 3.94, 0.0000000, 0.0000000, 0.00, -42.75, -49.56, 9.25, 0N0N, 26.1, 335592
379, 1, 11011, 19/9/2024; 12:1:29, 90928.27, 90961.06, 0.9, -0.26, 1.16, 0.08, 27.92, 3.92, 0.0000000, 0.0000000, 0.00, -58.56, -58.0, 10.5, 0N0N, 26.12, 335592
380, 1, 11011, 19/9/2024; 12:1:30, 90929.68, 90960.82, 0.77, -0.24, 1.01, -0.13, 27.94, 3.96, 0.0000000, 0.0000000, 0.00, -62.69, -59.5, 10.81, 0N0N, 26.18, 335592
381, 1, 11011, 19/9/2024; 12:1:31, 90926.06, 90959.55, 1.11, -0.12, 1.23, 0.34, 27.96, 3.84, 0.0000000, 0.0000000, 0.00, -59.06, -58.75, 10.94, 0N0N, 26.24, 335592
382, 1, 11011, 19/9/2024; 12:1:32, 90926.24, 90960.71, 1.09, -0.23, 1.32, -0.02, 27.96, 3.84, 0.0000000, 0.0000000, 0.00, -57.69, -58.44, 10.94, 0N0N, 26.27, 335592
383, 1, 11011, 19/9/2024; 12:1:33, 90931.23, 90960.01, 0.63, -0.16, 0.79, -0.46, 27.99, 3.89, 0.0000000, 0.0000000, 0.00, -57.12, -58.25, 10.94, 0N0N, 26.32, 335592
384, 1, 11011, 19/9/2024; 12:1:34, 90928.42, 90958.91, 0.89, -0.06, 0.95, 0.26, 28.01, 3.92, 0.0000000, 0.0000000, 0.00, -57.0, -58.25, 10.94, 0N0N, 26.31, 335592
